Permit Type,Permit No,Issued,Address,Zip Code,Mapsco,Contractor,Value,Area,Work Description,Land Use,Latitude,Longitude,Number,Street,Unit Type,Unit Number,City,State,County,Zip,Country
Building (BU) Commercial  New Construction,1705241131,9/15/2017,375 S PRAIRIE CREEK RD,75217,"58-V,58-Z,59-S,59-W","BALDWIN ASSOCIATES (214) 824-7949 3904 ELM STE B, DALLAS, TX 75226",1550000,0,NEW CONSTRUCTION,"PUBLIC PARK, PLAYGROUND, OR GOLF COURSE",32.705592,-96.665682,,S Prairie Creek Rd,,,Dallas,TX,Dallas County,75217,US
Building (BU) Commercial  New Construction,1705241125,10/4/2017,14730 HILLCREST RD,75254,"15-H,16-E","BALDWIN ASSOCIATES (214) 824-7949 3904 ELM STE B, DALLAS, TX 75226",1525000,0,NEW COMMERCIAL CONSTRUCTION,"PUBLIC PARK, PLAYGROUND, OR GOLF COURSE",32.948178,-96.785251,14730,Hillcrest Rd,,,Dallas,TX,Dallas County,75254,US
Building (BU) Commercial  New Construction,1705241116,10/26/2017,3003 SAMUELL BLVD,75223,"46-H,47-A,47-E","THE FAIN GROUP, INC (817) 927-4388 P.O. BOX 750, FORT WORTH, TX 76101",1500000,0,NEW CONSTRUCTION,"PUBLIC PARK, PLAYGROUND, OR GOLF COURSE",32.792819,-96.742746,3003,Samuell Blvd,,,Dallas,TX,Dallas County,75223,US
Building (BU) Commercial  New Construction,1702211036,10/18/2017,3309 DILIDO RD,75228,48-B,"RLI CONSTRUCTION, LLC (281) 216-6400 403 ALEXANDRIA CIR, SOUTHLAKE, TX 76092",1059375,0,NEW COMMERCIAL CONSTRUCTION,CONVALESCENT & NURSING HOMES & RELATED INSTITUTION,32.80527,-96.689944,3309,Dilido Rd,,,Dallas,TX,Dallas County,75228,US
Building (BU) Commercial  New Construction,1609221104,1/5/2017,2895 W COMMERCE ST,75212,43-Q,"JACKA, MICHAEL (574) 271-2921 7121 GRAPE, GRANGER, IN 46530",850000,0,NEW CONSTRUCTION,INDUSTRIAL (OUTSIDE),32.775535,-96.867353,2895,W Commerce St,,,Dallas,TX,Dallas County,75212,US
Building (BU) Commercial  New Construction,1612281114,7/18/2017,5606 WAYSIDE DR,75235,"34-S,34-W","RATCLIFF CONSTRUCTORS, L P (972) 432-9969 4200 BELTWAY DRIVE, ADDISON, TX 75001",664196,0,NEW CONSTRUCTION OF EARLY CHILDHOOD CENTER.,PUBLIC OR PRIVATE SCHOOL,32.814874,-96.851775,5606,Wayside Dr,,,Dallas,TX,Dallas County,75235,US
Building (BU) Commercial  New Construction,1609211073,1/10/2017,1002 SINGLETON BLVD,75212,44-P,"EAGLE LANDSCAPE (214) 475-1563 2013 HOLFORD, GARLAND, TX 75044",500000,0,CREATION OF PRIVATE PARK,"PRIVATE RECREATION CENTER, CLUB OR AREA",32.7775,-96.839244,1002,Singleton Blvd,,,Dallas,TX,Dallas County,75212,US
Building (BU) Commercial  New Construction,1701131006,6/15/2017,11223 LUNA RD,75229,"22-E,22-J","JC COMMERCIAL, INC (972) 436-4622 1801 Lakepointe Drive, Suite 129, LEWISVILLE, TX 75057",400000,0,NEW CONSTRUCTION,"PUBLIC PARK, PLAYGROUND, OR GOLF COURSE",32.890892,-96.921553,11223,Luna Rd,,,Dallas,TX,Dallas County,75229,US
Building (BU) Commercial  New Construction,1610191031,7/26/2017,5850 ELAM RD,75217,"57-P,57-Q,57-T,57-U,57-X,57-Y","SCOTT & REID (469) 374-3400 17300 DALLAS PKWY, SUITE 2000, DALLAS, TX 75248",400000,0,NEW COMMERCIAL CONSTRUCTION,"PUBLIC PARK, PLAYGROUND, OR GOLF COURSE",32.716222,-96.729146,5930,Elam Rd,,,Dallas,TX,Dallas County,75217,US
Building (BU) Commercial  New Construction,1706281073,10/12/2017,4318 MCKINNEY AVE,75205,"35-U,35-V","SLC COMMERCIAL CONSTRUCTION LLC (615) 778-3150 1550 WEST MCEWEN DR STE 200, FRANKLIN, TN 37067",400000,0,CONSTRUCT PARK AREA FOR PRIVATE USE,"PRIVATE RECREATION CENTER, CLUB OR AREA",32.818266,-96.789398,4318,McKinney Ave,,,Dallas,TX,Dallas County,75205,US
Building (BU) Commercial  New Construction,1606161027,8/14/2017,2707 ROYAL LN,75229,23-E,"S & W CONSTRUCTION, INC (817) 426-4039 352 N RUDD ST., BURLESON, TX 76028",366666.67,0,NEW CONSTRUCTION,GEN MERCHANDISE OR FOOD STORE > 3500 SQ. FT.,32.895708,-96.886404,2707,Royal Ln,,,Dallas,TX,Dallas County,75229,US
Building (BU) Commercial  New Construction,1609221086,9/27/2017,2702 S BUCKNER BLVD,75227,48-Y,"Z CONSTRUCTORS (972) 682-1435 11886 Greenville Avenue, Ste 106 D, DALLAS, TX 75243",300000,0,NEW CONSTRUCTION,SHELL BUILDING,32.758187,-96.681982,2702,S Buckner Blvd,,,Dallas,TX,Dallas County,75227,US
Building (BU) Commercial  New Construction,1701121009,6/6/2017,10350 N CENTRAL EXPY,75231,26-K,"A & M DEVELOPERS (214) 395-9398 7701 LAS COLINAS RIDGE, #250, IRVING, TX 75063",250000,0,NEW CONSTRUCTION,HOTEL,32.886726,-96.768826,10350,N Central Expy,,,Dallas,TX,Dallas County,75231,US
Building (BU) Commercial  New Construction,1707131004,10/13/2017,2720 LIVE OAK ST,75204,"45-H,45-M", () - ,195000,0,NEW CONSTRUCTION GEN. MERCH AND FUEL ISLAND,GEN MERCHANDISE OR FOOD STORE > 3500 SQ. FT.,32.788903,-96.788422,2720,Live Oak St,,,Dallas,TX,Dallas County,75204,US
Building (BU) Commercial  New Construction,1610051078,3/27/2017,10905 SANDEN DR,75238,"28-A,28-B,28-E,28-F","F & K BUILDERS (214) 213-1955 1616 SHIRLEY WAY, BEDFORD, TX 76022",180000,0,NEW CONSTRUCTION,COMMERCIAL MOTOR VEHICLE PARKING,32.899882,-96.696277,10905,Sanden Dr,,,Dallas,TX,Dallas County,75238,US
Building (BU) Commercial  New Construction,1501081111,10/30/2017,875 S R L THORNTON FWY,75203,54-H,"ALARCON CONSTRUCTION GROUP (214) 402-2346 17527 OAK MOUNT PL, DALLAS, TX 75287-7532",160000,0,NEW COMMERCIAL CONSTRUCTION,SHELL BUILDING,32.741488,-96.821814,875,S R L Thornton Fwy,,,Dallas,TX,Dallas County,75203,US
Building (BU) Commercial  New Construction,1701061058,8/14/2017,4203 S LANCASTER RD,75216,65-C,"PHILLIPS MAY CORPORATION (214) 631-3331 1125 LONGPOINT AVE, DALLAS, TX 75247",100000,0,INSTALL NEW PLAYGROUND EQUIPMENT,PUBLIC OR PRIVATE SCHOOL,32.697406,-96.795805,4203,S Lancaster Rd,,,Dallas,TX,Dallas County,75216,US
Building (BU) Commercial  New Construction,1709111027,11/28/2017,8300 ELAM RD,75217,58-U,"MARK TOLOCKO (972) 839-2925 PO BOX 190343, DALLAS, TX 75219",75000,0,ALL RELATED SITE WORK,SHELL BUILDING,32.719308,-96.679077,8300,Elam Rd,,,Dallas,TX,Dallas County,75217,US
Building (BU) Commercial  New Construction,1702271232,6/14/2017,7265 W CAMP WISDOM RD,75236,61B-T,"NOVEL BUILDERS, LLC (214) 884-8810 600 S SHERMAN ST #124, RICHARDSON, TX 75081",60000,0,SITE WORK,OFFICE BUILDING,32.665867,-96.951275,7265,W Camp Wisdom Rd,,,Dallas,TX,Dallas County,75236,US
Building (BU) Commercial  New Construction,1701061056,8/14/2017,4203 S LANCASTER RD,75216,65-C,"PHILLIPS MAY CORPORATION (214) 631-3331 1125 LONGPOINT AVE, DALLAS, TX 75247",50000,0,"ADDITION OF NEW BLDG, PLAYGROUND EQUIP. & SITE WORK ",PUBLIC OR PRIVATE SCHOOL,32.697406,-96.795805,4203,S Lancaster Rd,,,Dallas,TX,Dallas County,75216,US
Building (BU) Commercial  New Construction,1703271074,7/7/2017,3734 W CLARENDON DR,75211,53-J,"ALPHA CONSTRUCTION (214) 317-5190 4121 MANGROVE, CARROLLTON, TX 75007",40000,0,NEW CONSTRUCTION,DRY CLEANING OR LAUNDRY STORE,32.73468,-96.882883,3734,W Clarendon Dr,,,Dallas,TX,Dallas County,75211,US
Building (BU) Commercial  New Construction,1709081031,10/24/2017,4406 ROSELAND AVE,75204,45-D,"ICS COMMERCIAL, LP. (214) 521-4928 3624 OAK LAWN, #325, DALLAS, TX 75067",37500,0,NEW PARKING LOT,COMMERCIAL PARKING LOT OR GARAGE,32.802791,-96.781667,4406,Roseland Ave,,,Dallas,TX,Dallas County,75204,US
Building (BU) Commercial  New Construction,1708161029,10/24/2017,4402 ROSELAND AVE,75204,45-D,"ICS COMMERCIAL, LP. (214) 521-4928 3624 OAK LAWN, #325, DALLAS, TX 75067",37500,0,NEW PARKING LOT,COMMERCIAL PARKING LOT OR GARAGE,32.802695,-96.781779,4402,Roseland Ave,,,Dallas,TX,Dallas County,75204,US
Building (BU) Commercial  New Construction,1703231079,4/3/2017,7777 FOREST LN Ste:BU D1,75251,"16-W,16-X","SPAW-GLASS CONSTRUCTRUCTION (817) 288-0890 1000 W MAGNOLIA AVE, FORT WORTH, TX 76104",30000,0,GRADING AND PRIVATE SIDE STORM WATER,COMMERCIAL PARKING LOT OR GARAGE,32.911775,-96.773229,7777,Forest Ln,Ste,BU,Dallas,TX,Dallas County,75230,US
Building (BU) Commercial  New Construction,1608171073,5/11/2017,4843 SUNNYVALE ST,75216,"66-A,66-E","CASTLE BUILDERS (214) 784-9905 2451 CROW CREEK, DALLAS, TX 75233",24000,0,NEW COMMERCIAL CONSTRUCTION,HOME IMPROVEMENT CENTER/ BLDG MATERIALS SALES YARD,32.695706,-96.773807,4843,Sunnyvale St,,,Dallas,TX,Dallas County,75216,US
Building (BU) Commercial  New Construction,1701031062,1/3/2017,7701 BANNER DR,75251,16-S,"ARCO/ MURRAY NATIONAL CONSTRUCTUON COMPANY, INC. (214) 377-6891 4849 Greenville Ave, Ste 1460, Dallas, TX 75206",0,0,SITE WORK,MINI-WAREHOUSE,32.920501,-96.774764,7701,Banner Dr,,,Dallas,TX,Dallas County,75251,US
Building (BU) Commercial  New Construction,1612151022,1/3/2017,8070 FRANKFORD RD,,"6-F,6-G,6-K","WHITING-TURNER CONTRACTING CO (469) 429-0800 2301 W PLANO #104, PLANO, TX 75075",0,0,NEW COMMERCIAL CONSTRUCTION,RETIREMENT HOUSING,0,0,,,,,,,,,
Building (BU) Commercial  New Construction,1609071096,1/3/2017,8070 FRANKFORD RD,,"6-F,6-G,6-K","WHITING-TURNER CONTRACTING CO (469) 429-0800 2301 W PLANO #104, PLANO, TX 75075",0,0,NEW COMMERCIAL CONSTRUCTION,RETIREMENT HOUSING,0,0,,,,,,,,,
Building (BU) Commercial  New Construction,1611161118,1/3/2017,8050 FRANKFORD RD,,"6-F,6-G,6-K","WHITING-TURNER CONTRACTING CO (469) 429-0800 2301 W PLANO #104, PLANO, TX 75075",0,0,NEW CONSTRUCTION OF RETIREMENT HOUSING,CONVALESCENT & NURSING HOMES & RELATED INSTITUTION,0,0,,,,,,,,,
Building (BU) Commercial  New Construction,1605111095,1/6/2017,4246 W LOVERS LN,75209,34-B,"BARROW BUILDERS GROUP (214) 755-7300 4303 W LOVERS, STE 200, DALLAS, TX 75209",0,0,NEW CONSTRUCTION OFFICE BUILDING ,OFFICE BUILDING,32.85097,-96.837766,4246,W Lovers Ln,,,Dallas,TX,Dallas County,75209,US
Building (BU) Commercial  New Construction,1605041178,1/13/2017,7035 W WHEATLAND RD,75249,71B-C,"B & M WEST CONSTRUCTION CO (863) 519-4441 BOX 949, MULBERRY , FL 33860",0,0,NEW CONSTRUCTIUON OF CONVENIENCE STORE W/ FUELING STATION,GEN MERCHANDISE OR FOOD STORE > 3500 SQ. FT.,32.647056,-96.94421,7035,W Wheatland Rd,,,Dallas,TX,Dallas County,75249,US
Building (BU) Commercial  New Construction,1512231031,1/19/2017,6474 E NORTHWEST HWY,75214,36-D,"HELKER & CRAWFORD (214) 222-0063 720 VALLEY RIDGE CIRCLE STE 1, LEWISVILLE, TX 75057",0,0,NEW CONSTRUCTION CVS PHARMACY WITH DRIVE THRU ,GEN MERCHANDISE OR FOOD STORE > 3500 SQ. FT.,32.828651,-96.745951,,,,,Dallas,TX,Dallas County,75214,US
Building (BU) Commercial  New Construction,1605201097,1/19/2017,4019 FRANKFORD RD,,4-F,"BONNER ASSOCIATES CONSTRUCTORS (214) 946-1155 737 S RL THORNTON FRWY, DALLAS, TX 75203",0,0,NEW CONSTRUCTION AUTO SERVICE CENTER ,AUTO SERVICE CENTER,0,0,,,,,,,,,
Building (BU) Commercial  New Construction,1609021142,1/23/2017,2304 W MOCKINGBIRD LN,75235,34-N,"DOUGLAS COOK ENTERPISES, LLC (504) 455-7762 125 ZINNIA  AVE, METARIRIE, LA 70001",0,0,construct new building ,RESTAURANT WITH DRIVE-IN SERVICE,32.825575,-96.846975,2304,W Mockingbird Ln,,,Dallas,TX,Dallas County,75235,US
Building (BU) Commercial  New Construction,1612281057,1/30/2017,7615 S CENTRAL EXPY,75216,56-U,"ONEJAI BUILDER LLC (214) 683-8298 1126 E 8TH ST , DALLAS, TX 75203",0,0,NEW CONSTRUCTION OF HOTEL,HOTEL,32.716155,-96.756562,7615,S Central Expy,,,Dallas,TX,Dallas County,75216,US
Building (BU) Commercial  New Construction,1701301067,1/31/2017,2303 BICKERS ST,75212,"43-H,43-M","SKILES GROUP INC (972) 644-2444 1810 N. Greenville Ave., Richardson, TX 75081",0,0,NEW CONSTRUCTION OF BASEBALL STADIUM,"PUBLIC PARK, PLAYGROUND, OR GOLF COURSE",32.787919,-96.857653,2303,Bickers St,,,Dallas,TX,Dallas County,75212,US
Building (BU) Commercial  New Construction,1412161034,2/6/2017,9835 WALNUT HILL LN,75238,27-Q,"S&B CONSTRUCTION GROUP LLC (317) 755-3334 8740 EAST 30TH STREET, INDIANAPOLIS, IN 46219",0,0,NEW CONSTRUCTION ,GEN MERCHANDISE OR FOOD STORE > 3500 SQ. FT.,32.879366,-96.716524,9835,Walnut Hill Ln,,,Dallas,TX,Dallas County,75238,US
Building (BU) Commercial  New Construction,1611221097,2/7/2017,4880 MOUNTAIN CREEK PKWY,75211,"61A-R,61B-N","VICTRON STORES LP (469) 517-2000 105 YMCA DR., WAXAHACHIE, TX 75165",0,0,NEW CONSTRUCTION OF C-STORE/GAS STATION/RESTAURANTS,GEN MERCHANDISE OR FOOD STORE < 3500 SQ. FT.,32.672562,-96.968048,4880,Mountain Creek Pkwy,,,Dallas,TX,Dallas County,75236,US
Building (BU) Commercial  New Construction,1512301066,2/9/2017,1220 W MOCKINGBIRD LN,75247,33-U,"TRANSCEND CONSTRUCTION, INC. (817) 401-3547 2105 BANCROFT CT, ARLINGTON, TX 76017",0,0,NEW CONSTRUCTION CONVENIENCE STORE AND GAS CANOPY ,Motor Vehicle Fueling Station,32.819103,-96.867568,1220,W Mockingbird Ln,,,Dallas,TX,Dallas County,75247,US
Building (BU) Commercial  New Construction,1701131168,2/9/2017,4550 WORTH ST,75246,"46-E,46-F","MART INC. (214) 721-1522 1503 PERRY RD, IRVING, TX 75060",0,0,PARKING LOT,PUBLIC OR PRIVATE SCHOOL,32.794815,-96.77066,4550,Worth St,,,Dallas,TX,Dallas County,75246,US
Building (BU) Commercial  New Construction,1610131129,2/16/2017,6505 MAPLESHADE LN,,"5-D,656-Z","M L GRAY PARTNERSHIP (214) 628-9425 1811 GREENVILLE AVE. #150, DALLAS, TX 75206",0,0,NEW CONSTRUCTION OF OFFICE BUILDING,OFFICE BUILDING,0,0,,,,,,,,,
Building (BU) Commercial  New Construction,1702141030,2/16/2017,6010 WHISPERING CEDAR DR,75236,"61B-H,61B-M,62-E,62-J","SPRING VALLEY CONSTRUCTION CO. (214) 340-9800 10950 Alder Circle, Dallas, TX 75238",0,0,NEW CONSTRUCTION,"PRIVATE RECREATION CENTER, CLUB OR AREA",32.68801,-96.927577,6010,Whispering Cedar Dr,,,Dallas,TX,Dallas County,75236,US
Building (BU) Commercial  New Construction,1611011093,2/21/2017,1550 STOREY LN,75220,33-A,"MCRIGHT-SMITH CONSTRUCTION, LLC (972) 608-8988 6900 N DALLAS PKWY #770, PLANO, TX 75024",0,0,NEW CONSTRUCTION OF 3 BUILDINGS FOR STORAGE USE,SHELL BUILDING,32.85147,-96.886997,1550,Storey Ln,,,Dallas,TX,Dallas County,75220,US
Building (BU) Commercial  New Construction,1612201131,2/21/2017,9655 WEBB CHAPEL RD,75220,"23-U,23-Y,23-Z","RELIABLE PAVING (817) 467-0779 1903 N PEYCO, ARLINGTON, TX 76001",0,0,NEW COMMERCIAL CONSTRUCTION,SHELL BUILDING,32.86538,-96.863538,9655,Webb Chapel Rd,,,Dallas,TX,Dallas County,75220,US
Building (BU) Commercial  New Construction,1605121120,2/22/2017,506 N ST PAUL ST,75201,45-L,"SCHWOB BUILDING COMPANY (972) 243-7674 2349 GLENDA LN, DALLAS, TX 75229",0,0,SITE WORK,COMMERCIAL PARKING LOT OR GARAGE,32.784536,-96.798013,506,N St Paul St,,,Dallas,TX,Dallas County,75201,US
Building (BU) Commercial  New Construction,1702221042,2/22/2017,2013 JACKSON ST,75201,"45-L,45-Q","TRIARC CONSTRUCTION, LLC (512) 657-7796 3001 BOOKHOUT ST, DALLAS, TX 75201",0,0,GRADING ONLY,COMMERCIAL PARKING LOT OR GARAGE,32.780444,-96.793672,2013,Jackson St,,,Dallas,TX,Dallas County,75201,US
Building (BU) Commercial  New Construction,1611081065,3/1/2017,2303 BICKERS ST,75212,"43-H,43-M","SKILES GROUP INC (972) 644-2444 1810 N. Greenville Ave., Richardson, TX 75081",0,0,NEW CONSTRUCTION OF BASEBALL STADIUM,"PUBLIC PARK, PLAYGROUND, OR GOLF COURSE",32.787919,-96.857653,2303,Bickers St,,,Dallas,TX,Dallas County,75212,US
Building (BU) Commercial  New Construction,1607261018,3/2/2017,7037 TWIN HILLS AVE,75231,26-P,"CARLISLE BUILDERS (469) 446-9095 7979 INWOOD RD, SUITE 225, DALLAS, TX 75209",0,0,NEW CONSTRUCTION OFFICE SHOWROOM/WAREHOUSE W/2 LIVING UNITS HELL ONLY- CO REQ'D BEFORE OCCUPANCY  ,SHELL BUILDING,32.875107,-96.764734,7037,Twin Hills Ave,,,Dallas,TX,Dallas County,75231,US
Building (BU) Commercial  New Construction,1701131096,3/7/2017,2545 RANCH TRL,75019,"11A-K,11A-M,11A-N,11A-P,11A-Q,11A-R","NORTHSTAR BUILDERS GROUP (972) 745-6900 270 NORTH DENTON TAP, SUITE 250, COPPELL, TX 75019",0,0,,PUBLIC OR PRIVATE SCHOOL,32.931572,-96.969602,2545,Ranch Trl,,,Coppell,TX,Dallas County,75019,US
Building (BU) Commercial  New Construction,1604181133,3/10/2017,1830 ROYAL LN,75229,22-F,"HC BECK CONTRACTORS (214) 303-6416 1807 ROSS AVE., STE 500, DALLAS, TX 75201",0,0,RENOVATION OF EXISTING BUILDING AND ADDING A NEW BUILDING ,MUSEUM,32.89549,-96.918058,1830,Royal Ln,,,Dallas,TX,Dallas County,75229,US
Building (BU) Commercial  New Construction,1611071042,3/13/2017,5770 ABRAMS RD,75214,36-D,"BENGE GENERAL CONTRACTING LLC (214) 789-9520 4540 Ross Ave, Suite 140, Dallas, TX 75204",0,0,NEW CONSTRUCTION OF SALON,PERSONAL SERVICE USE,32.855324,-96.750812,5770,Abrams Rd,,,Dallas,TX,Dallas County,75214,US
Building (BU) Commercial  New Construction,1611211008,3/20/2017,3121 DALLAS FT WORTH TPKE,75212,43-U,"CARLISLE BUILDERS (469) 446-9095 7979 INWOOD RD, SUITE 225, DALLAS, TX 75209",0,0,,SHELL BUILDING,32.781246,-96.878831,,,,,Dallas,TX,Dallas County,75212,US
Building (BU) Commercial  New Construction,1702241144,3/20/2017,3111 DALLAS FT WORTH TPKE,75212,43-U,"CARLISLE BUILDERS (469) 446-9095 7979 INWOOD RD, SUITE 225, DALLAS, TX 75209",0,0,NEW COMMERCIAL CONSTRUCTION,SHELL BUILDING,32.781246,-96.878831,,,,,Dallas,TX,Dallas County,75212,US
Building (BU) Commercial  New Construction,1702241133,3/20/2017,3101 DALLAS FT WORTH TPKE,75212,43-U,"CARLISLE BUILDERS (469) 446-9095 7979 INWOOD RD, SUITE 225, DALLAS, TX 75209",0,0,,SHELL BUILDING,32.781246,-96.878831,,,,,Dallas,TX,Dallas County,75212,US
Building (BU) Commercial  New Construction,1612281127,3/21/2017,3130 W MOCKINGBIRD LN,75235,34-K,"23 TRITON LLC. (972) 474-4077 3415 CUSTER RD #102, PLANO, TX 75023",0,0,NEW CONSTRUCTION OF RESTAURANT,RESTAURANT WITHOUT DRIVE-IN SERVICE,32.833049,-96.837723,3130,W Mockingbird Ln,,,Dallas,TX,Dallas County,75235,US
Building (BU) Commercial  New Construction,1612091037,3/22/2017,8121 WALNUT HILL LN,75231,"26-K,26-P","CORE CONSTRUCTION SERVICES OF TEXAS INC (972) 668-9340 10625 N COUNTY RD, FRISCO, TX 75034",0,0,NEW CONSTRUCTION OF 2 SHELL BLDG,SHELL BUILDING,32.880769,-96.767263,8121,Walnut Hill Ln,,,Dallas,TX,Dallas County,75231,US
Building (BU) Commercial  New Construction,1702221068,3/27/2017,9655 AUDELIA RD,75238,27-Q,"J & K PROJECT MANAGEMENT CONSULTANTS LLC (972) 436-1144 350 MCDONNELL ST, LEWISVILLE, TX 75057",0,0,NEW CONSTRUCTION RETAIL,RESTAURANT WITH DRIVE-IN SERVICE,32.877703,-96.718469,9655,Audelia Rd,,,Dallas,TX,Dallas County,75238,US
Building (BU) Commercial  New Construction,1704031126,4/3/2017,3010 N WESTMORELAND RD,75212,"43-K,43-L,43-P,43-Q","MSCS LTD (817) 538-8442 206 SHELBY RD, EVERMAN, TX 76140",0,0,,GEN MERCHANDISE OR FOOD STORE > 3500 SQ. FT.,32.781176,-96.871688,3010,N Westmoreland Rd,,,Dallas,TX,Dallas County,75212,US
Building (BU) Commercial  New Construction,1609281085,4/3/2017,3010 N WESTMORELAND RD,75212,"43-K,43-L,43-P,43-Q","MSCS LTD (817) 538-8442 206 SHELBY RD, EVERMAN, TX 76140",0,0,,GEN MERCHANDISE OR FOOD STORE > 3500 SQ. FT.,32.781176,-96.871688,3010,N Westmoreland Rd,,,Dallas,TX,Dallas County,75212,US
Building (BU) Commercial  New Construction,1702271243,4/5/2017,2722 N FITZHUGH AVE,75206,"35-V,35-Z","JLB BUILDERS LLC (214) 395-1726 3890 W. Northwest Highway , Seventh Floor, Dallas, TX 75220",0,0,SHELL BUILDING,SHELL BUILDING,32.81475,-96.785761,2722,N Fitzhugh Ave,,,Dallas,TX,Dallas County,75204,US
Building (BU) Commercial  New Construction,1610181047,4/6/2017,7898 SAMUELL BLVD,75227,"48-G,48-L","TAURUS COMMERCIAL INC. (972) 243-5444 12200 FORD RD , STE 492, FARMERS BRANCH, TX 75234",0,0,NEW CONSTRUCTION OF PRIVATE SCHOOL,PUBLIC OR PRIVATE SCHOOL,32.789906,-96.676741,7890,Samuell Blvd,,,Dallas,TX,Dallas County,75228,US
Building (BU) Commercial  New Construction,1703241143,4/14/2017,3440 DUNCANVILLE RD,75236,"52-Y,62-C","CHA  TECH  SERVICES LLC (678) 954-5000 3 WINNERS CIRCLE, ABANY, NY 30024",0,0,FOUNDATION ONLY,WAREHOUSE,32.700085,-96.908585,3440,Duncanville Rd,,,Dallas,TX,Dallas County,75236,US
Building (BU) Commercial  New Construction,1612201078,4/14/2017,800 N HARWOOD ST,75201,"45-K,45-L","AUSTIN COMMERCIAL LP (214) 443-5700 3535 TRAVIS ST , DALLAS , TX 75203",0,0,NEW CONSTRUCTION OF PARKING GARAGE,COMMERCIAL PARKING LOT OR GARAGE,32.785963,-96.798278,800,N Harwood St,,,Dallas,TX,Dallas County,75201,US
Building (BU) Commercial  New Construction,1611141066,4/21/2017,9215 MIDWAY RD,75220,24-X,"GLR INC. (937) 890-0510 3795 WYSE RD, DAYTON, OH 45414",0,0,NEW CONSTRUCTION OF PHARMACY WITH DRIVE THRU,GEN MERCHANDISE OR FOOD STORE > 3500 SQ. FT.,32.86456,-96.837287,9215,Midway Rd,,,Dallas,TX,Dallas County,75220,US
Building (BU) Commercial  New Construction,1704261037,4/27/2017,3000 OLYMPUS BLVD,75019,"11A-K,11A-L,11A-M,11A-P,11A-Q,11A-R","BALFOUR BEATTY CONSTRUCTION LLC (214) 451-1864 3100 MCKINNON , 7th FLOOR, DALLAS, TX 75201",0,0,MASS GRADING ONLY,SHELL BUILDING,32.933805,-96.983027,3000,Olympus Blvd,,,Coppell,TX,Dallas County,75019,US
Building (BU) Commercial  New Construction,1612231008,5/1/2017,2503 W MOCKINGBIRD LN,75235,"34-N,34-P","MAPP CONSTRUCTION (214) 267-0700 3131 TURTLE CREEK BLVD, DALLAS, TX 75226",0,0,NEW CONSTRUCTION OF RESTAURANT,GEN MERCHANDISE OR FOOD STORE < 3500 SQ. FT.,32.828621,-96.844636,2503,W Mockingbird Ln,,,Dallas,TX,Dallas County,75235,US
Building (BU) Commercial  New Construction,1703281028,5/2/2017,2200 N ST AUGUSTINE DR Ste:BU 2,75227,59-B,"WHITING-TURNER CONTRACTING CO (469) 429-0800 2301 W PLANO #104, PLANO, TX 75075",0,0,NEW CONSTRUCTION OF GYM,PUBLIC OR PRIVATE SCHOOL,32.75069,-96.656727,2200,N St Augustine Dr,Ste,BU,Dallas,TX,Dallas County,75227,US
Building (BU) Commercial  New Construction,1609071120,5/3/2017,3100 OLYMPUS BLVD,75019,"11A-K,11A-L,11A-M,11A-P,11A-Q,11A-R","BALFOUR BEATTY CONSTRUCTION LLC (214) 451-1864 3100 MCKINNON , 7th FLOOR, DALLAS, TX 75201",0,0,NEW CONSTRUCTION SHELL BLDG  & PARKING GARAGE ,SHELL BUILDING,32.934744,-96.984579,3100,Olympus Blvd,,,Coppell,TX,Dallas County,75019,US
Building (BU) Commercial  New Construction,1704281013,5/3/2017,7777 FOREST LN Ste:BU D1,75251,"16-W,16-X","SPAW-GLASS CONSTRUCTRUCTION (817) 288-0890 1000 W MAGNOLIA AVE, FORT WORTH, TX 76104",0,0,FOUNDATION ONLY,COMMERCIAL PARKING LOT OR GARAGE,32.911775,-96.773229,7777,Forest Ln,Ste,BU,Dallas,TX,Dallas County,75230,US
Building (BU) Commercial  New Construction,1703271058,5/9/2017,1515 KNOXVILLE ST,75211,"52-F,52-G,52-H,52-K,52-L,52-M,52-Q","M L GRAY PARTNERSHIP (214) 628-9425 1811 GREENVILLE AVE. #150, DALLAS, TX 75206",0,0,NEW CONSTRUCTION,COUNTRY CLUB WITH PRIVATE MEMBERSHIP,32.735551,-96.905197,1515,Knoxville St,,,Dallas,TX,Dallas County,75211,US
Building (BU) Commercial  New Construction,1702231159,5/10/2017,4143 MAPLE AVE,75219,35-W,"HC BECK CONTRACTORS (214) 303-6416 1807 ROSS AVE., STE 500, DALLAS, TX 75201",0,0,NEW CONSTRUCTION OF OFFICE BUILDING WITH GARAGE,OFFICE BUILDING,32.805004,-96.81601,4143,Maple Ave,,,Dallas,TX,Dallas County,75219,US
Building (BU) Commercial  New Construction,1703221006,5/12/2017,3800 CEDARDALE RD,75241,76-G,"FCL BUILDERS (469) 446-5635 7929 BROOKRIVER DR, SUITE# 630, DALLAS, TX 75247",0,0,NEW CONSTRUCTION OF SHELL BUILDING,SHELL BUILDING,32.637562,-96.759918,3800,Cedardale Rd,,,Dallas,TX,Dallas County,75241,US
Building (BU) Commercial  New Construction,1702241011,5/15/2017,9301 SKYLINE RD,75211,51A-L,"INGERSOLL RAND COMPANY (214) 631-9550 4310 ADLER DR #200, DALLAS, TX 75211",0,0,NEW CONSTRUCTION,INDUSTRIAL (INSIDE),32.735503,-96.980132,9301,Skyline Rd,,,Grand Prairie,TX,Dallas County,75051,US
Building (BU) Commercial  New Construction,1702271222,5/23/2017,3000 OLYMPUS BLVD,75019,"11A-K,11A-L,11A-M,11A-P,11A-Q,11A-R","BALFOUR BEATTY CONSTRUCTION LLC (214) 451-1864 3100 MCKINNON , 7th FLOOR, DALLAS, TX 75201",0,0,NEW CONSTRUCTION OF SHELL BLDG,SHELL BUILDING,32.933805,-96.983027,3000,Olympus Blvd,,,Coppell,TX,Dallas County,75019,US
Building (BU) Commercial  New Construction,1609221117,5/23/2017,5580 S BUCKNER BLVD,75228,48-G,"THE CHARLES MORGAN GROUP LP (972) 772-9089 1551 I 30 EAST , STE: 100, ROCKWALL, TX 75087",0,0,NEW COMMERCIAL CONSTRUCTION,RESTAURANT WITH DRIVE-IN SERVICE,32.793717,-96.684241,5580,S Buckner Blvd,,,Dallas,TX,Dallas County,75228,US
Building (BU) Commercial  New Construction,1704061141,5/24/2017,10814 ALDER CIR,75042,28-F,"NOVATEX CONTRACTING (972) 552-3553 10584 CR 2932, TERRELL , TX 75160",0,0,NEW CONSTRUCTION WAREHOUSE,OFFICE SHOWROOM/WAREHOUSE,32.898242,-96.692114,10830,Alder Cir,,,Garland,TX,Dallas County,75042,US
Building (BU) Commercial  New Construction,1706011096,6/2/2017,3440 DUNCANVILLE RD,75236,"52-Y,62-C","CHA  TECH  SERVICES LLC (678) 954-5000 3 WINNERS CIRCLE, ABANY, NY 30024",0,0,SHELL STEEL ONLY,SHELL BUILDING,32.700085,-96.908585,3440,Duncanville Rd,,,Dallas,TX,Dallas County,75236,US
Building (BU) Commercial  New Construction,1611281021,6/2/2017,903 SLOCUM ST,75207,45-J,"W B GENERAL CONTRACTOR (972) 991-4643 14229 PROTON RD, DALLAS, TX 75244",0,0,STORAGE W/ COVERED PARKING,WAREHOUSE,32.785709,-96.814074,903,Slocum St,,,Dallas,TX,Dallas County,75207,US
Building (BU) Commercial  New Construction,1612291105,6/6/2017,221 N MARSALIS AVE,75203,55-A,"CAPSTONE CLASSIC CONSTRUCTION (817) 421-7778 2810 MARKET LOOP STE: 100, SOUTHLAKE, TX 76092",0,0,SITE WORK,"CHURCH, SYNAGOGUE, TEMPLE, MOSQUE",32.750424,-96.816168,221,N Marsalis Ave,,,Dallas,TX,Dallas County,75203,US
Building (BU) Commercial  New Construction,1706061019,6/6/2017,2175 RESEARCH ROW,75235,33-G,"MCCARTHY BUILDING COMPANIES (972) 991-5500 12001 N CENTRAL EXPWY #400, DALLAS, TX 75243",0,0,NEW CONSTRUCTION OFFICE BLDG & FLIGHT SIMULATOR BLDG.,OFFICE BUILDING,32.842188,-96.865033,2175,Research Row,,,Dallas,TX,Dallas County,75235,US
Building (BU) Commercial  New Construction,1608171049,6/8/2017,2300 SHORECREST DR,75235,33-G,"RALSTON OUTDOOR ADVERTISING (972) 241-4040 PO BOX 29188, DALLAS, TX 75229",0,0,NEW CONSTRUCTION,WAREHOUSE,32.842935,-96.86918,2300,Shorecrest Dr,,,Dallas,TX,Dallas County,75235,US
Building (BU) Commercial  New Construction,1705171083,6/8/2017,2550 PACIFIC AVE,75226,"45-L,45-M","BALFOUR BEATTY CONSTRUCTION LLC (214) 451-1864 3100 MCKINNON , 7th FLOOR, DALLAS, TX 75201",0,0,LEVEL ONE FOUNDATION & UNDERGROUND DETENTION STRUCTURE ONLY- NO VERTICLE CONSTRUCTION ALLOWED,OFFICE BUILDING,32.784573,-96.788212,2550,Pacific Ave,,,Dallas,TX,Dallas County,75226,US
Building (BU) Commercial  New Construction,1703071023,6/20/2017,1445 TURTLE CREEK BLVD,75207,44-H,"ANDRES CONSTRUCTION SERVICES (214) 521-2118 3710 RAWLINS DR, SUITE 1510, DALLAS, TX 75219",0,0,NEW CONSTRUCTION,HOTEL,32.796428,-96.822393,1445,Turtle Creek Blvd,,,Dallas,TX,Dallas County,75207,US
Building (BU) Commercial  New Construction,1701111134,6/21/2017,1632 MARKET CENTER BLVD,75207,44-H,"GREEN TAG CONSTRUCTION (972) 540-6331 3121 McKinney St, Melissa, TX 75454",0,0,,RESTAURANT WITHOUT DRIVE-IN SERVICE,32.793183,-96.821641,1632,Market Center Blvd,,,Dallas,TX,Dallas County,75207,US
Building (BU) Commercial  New Construction,1706211016,6/21/2017,3333 DAN MORTON DR,75236,"52-W,62-A","WHITING-TURNER CONTRACTING CO (469) 429-0800 2301 W PLANO #104, PLANO, TX 75075",0,0,NEW CONSTRUCTION,WATER TREATMENT PLANT,32.703895,-96.920078,3333,Dan Morton Dr,,,Dallas,TX,Dallas County,75236,US
Building (BU) Commercial  New Construction,1611011110,6/22/2017,6181 BONNIE VIEW RD,,,"VENTURE ENGINEERS & BUILDERS LLC (214) 682-1426 3030 L B J FWY #1150, DALLAS, TX 75234",0,0,NEW CONSTRUCTION SHELL BLDG,SHELL BUILDING,32.342906,-99.884814,,,,,View,TX,Taylor County,79564,US
Building (BU) Commercial  New Construction,1607261098,6/23/2017,5001 S BUCKNER BLVD,75227,48-L,"FOX FUELS CONSTRUCTION (214) 912-9398 10110 HARRY HINES BLVD, DALLAS, TX 75220",0,0,"NEW CONSTRUCTION NEW CONSTRUCTION C-STORE W/GAS, TAQUERIA , LAUND",GEN MERCHANDISE OR FOOD STORE > 3500 SQ. FT.,32.785228,-96.685249,5001,S Buckner Blvd,,,Dallas,TX,Dallas County,75227,US
Building (BU) Commercial  New Construction,1703231080,6/28/2017,7777 FOREST LN Ste:BU D1,75251,"16-W,16-X","SPAW-GLASS CONSTRUCTRUCTION (817) 288-0890 1000 W MAGNOLIA AVE, FORT WORTH, TX 76104",0,0,SITE WORK FOR NEW PARKING GARAGE,COMMERCIAL PARKING LOT OR GARAGE,32.911775,-96.773229,7777,Forest Ln,Ste,BU,Dallas,TX,Dallas County,75230,US
Building (BU) Commercial  New Construction,1706021101,6/30/2017,3000 MOUNTAIN CREEK PKWY,75211,"51B-T,51B-U,51B-X,51B-Y","DALLAS BAPTIST UNIVERSITY (214) 333-5122 3000 MOUNTAIN CREEK PARKWAY, DALLAS, TX 75211",0,0,NEW CONSTRUCTION,"COLLEGE, UNIVERSITY, OR SEMINARY",32.710387,-96.94655,3000,Mountain Creek Pkwy,,,Dallas,TX,Dallas County,75211,US
Building (BU) Commercial  New Construction,1702171058,7/10/2017,3440 DUNCANVILLE RD,75236,"52-Y,62-C","CHA  TECH  SERVICES LLC (678) 954-5000 3 WINNERS CIRCLE, ABANY, NY 30024",0,0,NEW WAREHOUSE,WAREHOUSE,32.700085,-96.908585,3440,Duncanville Rd,,,Dallas,TX,Dallas County,75236,US
Building (BU) Commercial  New Construction,1702151050,7/13/2017,1290 S LAMAR ST,75215,45-U,"SCHAFFER CONSTRUCTION, LLC (972) 824-5583 P.O. Box 2431, Frisco, TX 75034",0,0,NEW CONSTRUCTION ,GEN MERCHANDISE OR FOOD STORE < 3500 SQ. FT.,32.768697,-96.796823,1290,S Lamar St,,,Dallas,TX,Dallas County,75215,US
Building (BU) Commercial  New Construction,1701111104,7/14/2017,9707 WEBB CHAPEL RD,75220,23-U,"THE DIMENSION GROUP (214) 343-9400 10755 SANDHILL ROAD, DALLAS, TX 75238",0,0,NEW COMMERCIAL CONSTRUCTION,GEN MERCHANDISE OR FOOD STORE < 3500 SQ. FT.,32.86589,-96.864365,9707,Webb Chapel Rd,,,Dallas,TX,Dallas County,75220,US
Building (BU) Commercial  New Construction,1702221146,7/14/2017,7345 GASTON AVE,75214,37-X,"PARKWAY C&A LP (469) 322-3763 1000 CIVIC CIRCLE, LEWISVILLE, TX 75067",0,0,NEW RESTAURANT WITH DRIVE THRU,RESTAURANT WITH DRIVE-IN SERVICE,32.811735,-96.729408,7345,Gaston Ave,,,Dallas,TX,Dallas County,75214,US
Building (BU) Commercial  New Construction,1702071009,7/14/2017,2525 KNIGHT ST,75219,34-Z,"LEE LEWIS CONSTRUCTION, INC (972) 818-0700 17177 PRESTON RD STE: 160, DALLAS, TX 75248",0,0,NEW CONSTRUCTION,OFFICE BUILDING,32.808322,-96.817461,2525,Knight St,,,Dallas,TX,Dallas County,75219,US
Building (BU) Commercial  New Construction,1704181046,7/18/2017,9777 GREENVILLE AVE,75243,16-Z, () - ,0,0,NEW CONSTRUCTION OF RESTAURANT,RESTAURANT WITHOUT DRIVE-IN SERVICE,32.908512,-96.747649,9777,Greenville Ave,,,Dallas,TX,Dallas County,75243,US
Building (BU) Commercial  New Construction,1610241194,7/26/2017,1717 LEONARD ST,75201,"45-G,45-L","AUSTIN COMMERCIAL LP (214) 443-5700 3535 TRAVIS ST , DALLAS , TX 75203",0,0,GRADING,SHELL BUILDING,32.789716,-96.796869,1717,Leonard St,,,Dallas,TX,Dallas County,75201,US
Building (BU) Commercial  New Construction,1707271169,7/28/2017,3121 OLYMPUS BLVD,,,"NEDDERMAN & ASSOCIATES INC (214) 351-0882 2404 EMPIRE CENTRAL, DALLAS, TX 75235",0,0,FOUNDATION ONLY,SHELL BUILDING,31.434703,-99.281824,,,,,,TX,,,US
Building (BU) Commercial  New Construction,1706211084,7/28/2017,3837 SIMPSON STUART RD,75241,"66-L,66-M,66-Q,66-R","MY MODULAR LLC (214) 597-7130 3527 stodghill road, rockwall, TX 75087",0,0,NEW CONSTRUCTION,PUBLIC OR PRIVATE SCHOOL,32.680114,-96.754603,3837,Simpson Stuart Rd,,,Dallas,TX,Dallas County,75241,US
Building (BU) Commercial  New Construction,1707281028,7/28/2017,3111 OLYMPUS BLVD,,,"NEDDERMAN & ASSOCIATES INC (214) 351-0882 2404 EMPIRE CENTRAL, DALLAS, TX 75235",0,0,FOUNDATION ONLY,SHELL BUILDING,31.434703,-99.281824,,,,,,TX,,,US
Building (BU) Commercial  New Construction,1704131089,8/2/2017,5940 FOREST LN,75230,15-W,"TURNER CONSTRUCTION CO. (214) 721-8400 10100 N CENTRAL EXPRESSWAY, STE 600, DALLAS, TX 75231",0,0,NEW CONSTRUCTION,FINANCIAL INSTITUTION WITH DRIVE-IN WINDOW,32.909096,-96.806149,5940,Forest Ln,,,Dallas,TX,Dallas County,75230,US
Building (BU) Commercial  New Construction,1703171026,8/4/2017,3670 W WHEATLAND RD,75115,73-B,"HIGHLAND BUILDERS (972) 501-0330 2342  FABENS RD, SUITE 100, DALLAS, TX 75229",0,0,SITE WORK,MEDICAL CLINIC OR AMBULATORY SURGICAL CENTER,32.647164,-96.878997,3650,W Wheatland Rd,,,Desoto,TX,Dallas County,75115,US
Building (BU) Commercial  New Construction,1610241195,8/7/2017,1717 LEONARD ST,75201,"45-G,45-L","AUSTIN COMMERCIAL LP (214) 443-5700 3535 TRAVIS ST , DALLAS , TX 75203",0,0,FOUNDATION ,SHELL BUILDING,32.789716,-96.796869,1717,Leonard St,,,Dallas,TX,Dallas County,75201,US
Building (BU) Commercial  New Construction,1706141097,8/10/2017,17808 DALLAS PKWY,,,"VERDE VALLEY CONSTRUCTION (972) 663-3713 2600 DALLAS PKWY SUITE 290, FRISCO, TX 75034",0,0,NEW CONSTRUCTION,FINANCIAL INSTITUTION WITH DRIVE-IN WINDOW,32.781179,-96.790329,,,,,Dallas,TX,Dallas County,75201,US
Building (BU) Commercial  New Construction,1702271238,8/10/2017,3121 OLYMPUS BLVD,,, () - ,0,0,SHELL BUILDING,SHELL BUILDING,31.434703,-99.281824,,,,,,TX,,,US
Building (BU) Commercial  New Construction,1610241192,8/10/2017,1717 LEONARD ST,75201,"45-G,45-L","AUSTIN COMMERCIAL LP (214) 443-5700 3535 TRAVIS ST , DALLAS , TX 75203",0,0,,SHELL BUILDING,32.789716,-96.796869,1717,Leonard St,,,Dallas,TX,Dallas County,75201,US
Building (BU) Commercial  New Construction,1612201044,8/16/2017,2242 FORT WORTH AVE,75211,43-Z,"RIDGEMONT CONSTRUCTION (214) 492-8900 1520 W WALNUT HILL LN, IRVING, TX 75038",0,0,NEW CONSTRUCTION OF 2 RETAIL SHELL BUILDINGS,SHELL BUILDING,32.760397,-96.858815,2242,Ft Worth Ave,,,Dallas,TX,Dallas County,75211,US
Building (BU) Commercial  New Construction,1708161070,8/18/2017,8605 E R L THORNTON FWY,75228,48-F,"NEWCRESTIMAGE CONSTRUCTION, LLC (214) 774-4650 1135 KINWEST PKWY, IRVING, TX 75034",0,0,GRADING ONLY,HOTEL,32.796001,-96.696056,8605,E R L Thornton Fwy,,,Dallas,TX,Dallas County,75228,US
Building (BU) Commercial  New Construction,1707241127,8/23/2017,10900 PETAL ST,75238,"28-J,28-K","BALDWIN ASSOCIATES (214) 824-7949 3904 ELM STE B, DALLAS, TX 75226",0,0,NEW CONSTRUCTION,"NURSERY, GARDEN SHOP, OR PLANT SALES",32.885365,-96.695289,10900,Petal St,,,Dallas,TX,Dallas County,75238,US
Building (BU) Commercial  New Construction,1708241058,8/25/2017,10101 BONNIE VIEW RD,75241,"76-L,76-Q","MYCON GENERAL CONTRACTOR (972) 529-2444 17311 DALLAS PKWY , STE 300, DALLAS, TX 75424",0,0,GRADING ONLY,SHELL BUILDING,32.628224,-96.755537,10101,Bonnie View Rd,,,Dallas,TX,Dallas County,75241,US
Building (BU) Commercial  New Construction,1704241040,8/28/2017,108 W DAVIS ST,75208,54-D,"GLR INC. (937) 890-0510 3795 WYSE RD, DAYTON, OH 45414",0,0,NEW CONSTRUCTION,GEN MERCHANDISE OR FOOD STORE > 3500 SQ. FT.,32.749163,-96.823473,108,W Davis St,,,Dallas,TX,Dallas County,75208,US
Building (BU) Commercial  New Construction,1705021129,8/29/2017,4700 CLEVELAND RD,75241,"76-H,76-M,77-E,77-J","ARCH-CON CORPORATION (214) 420-7900 8235 DOUGLAS AVE, STE 1000, DALLAS, TX 75225",0,0,NEW CONSTRUCTION,SHELL BUILDING,32.640736,-96.746029,4700,Cleveland Rd,,,Dallas,TX,Dallas County,75241,US
Building (BU) Commercial  New Construction,1612021003,8/31/2017,2550 PACIFIC AVE,75226,"45-L,45-M","BALFOUR BEATTY CONSTRUCTION LLC (214) 451-1864 3100 MCKINNON , 7th FLOOR, DALLAS, TX 75201",0,0,NEW CONSTRUCTION OF COMMERCIAL OFFICE AND PARKING STRUCTURE,OFFICE BUILDING,32.784573,-96.788212,2550,Pacific Ave,,,Dallas,TX,Dallas County,75226,US
Building (BU) Commercial  New Construction,1703071022,8/31/2017,1445 TURTLE CREEK BLVD,75207,44-H,"ANDRES CONSTRUCTION SERVICES (214) 521-2118 3710 RAWLINS DR, SUITE 1510, DALLAS, TX 75219",0,0,NEW CONSTRUCTION,HOTEL,32.796428,-96.822393,1445,Turtle Creek Blvd,,,Dallas,TX,Dallas County,75207,US
Building (BU) Commercial  New Construction,1705101021,9/1/2017,6343 LAKE JUNE RD,75217,57-M,"ROYAL BENGAL CONSTRUCTION INC. (214) 682-5973 2019 KENNETH HOPPER DR, MESQUITE, TX 75149",0,0,NEW CONSTRUCTION,GEN MERCHANDISE OR FOOD STORE < 3500 SQ. FT.,32.734821,-96.711031,6343,Lake June Rd,,,Dallas,TX,Dallas County,75217,US
Building (BU) Commercial  New Construction,1611231106,9/7/2017,2013 JACKSON ST,75201,"45-L,45-Q","TRIARC CONSTRUCTION, LLC (512) 657-7796 3001 BOOKHOUT ST, DALLAS, TX 75201",0,0,CONSTRUCTION OF NEW UNDERGROIND PARKING GARAGE,COMMERCIAL PARKING LOT OR GARAGE,32.780444,-96.793672,2013,Jackson St,,,Dallas,TX,Dallas County,75201,US
Building (BU) Commercial  New Construction,1708011130,9/7/2017,6010 WHISPERING CEDAR DR Ste:BU43,75236,"61B-H,61B-M,62-E,62-J","SPRING VALLEY CONSTRUCTION CO. (214) 340-9800 10950 Alder Circle, Dallas, TX 75238",0,0,NEW CONSTRUCTION,"PRIVATE RECREATION CENTER, CLUB OR AREA",32.68801,-96.927577,6010,Whispering Cedar Dr,Ste,BU43,Dallas,TX,Dallas County,75236,US
Building (BU) Commercial  New Construction,1705091135,9/12/2017,1332 GUARD DR,75217,57-M,"ROYAL BENGAL CONSTRUCTION INC. (214) 682-5973 2019 KENNETH HOPPER DR, MESQUITE, TX 75149",0,0,NEW CONSTRUCTION,MINI-WAREHOUSE,32.738249,-96.711672,1332,Guard Dr,,,Dallas,TX,Dallas County,75217,US
Building (BU) Commercial  New Construction,1709121026,9/12/2017,4820 W ILLINOIS AVE,75211,52-U,"HORIZON GENERAL CONTRACTOR (817) 244-7730 7315 W ELIZABETH LA, FT WORTH, TX 76116",0,0,,RESTAURANT WITHOUT DRIVE-IN SERVICE,32.719998,-96.905884,4820,W Illinois Ave,,,Dallas,TX,Dallas County,75211,US
Building (BU) Commercial  New Construction,1506191002,9/12/2017,250 N BISHOP AVE,75208,54-C,"REX CONSTRUCTION, LLC (214) 969-1091 101 N ZANG BLVD, STE 200, DALLAS, TX 75208",0,0,SITE WORK FOR NEW SHELL BUILIDINGS,SHELL BUILDING,32.747001,-96.82812,250,N Bishop Ave,,,Dallas,TX,Dallas County,75208,US
Building (BU) Commercial  New Construction,1703101099,9/21/2017,10101 BONNIE VIEW RD,75241,"76-L,76-Q","MYCON GENERAL CONTRACTOR (972) 529-2444 17311 DALLAS PKWY , STE 300, DALLAS, TX 75424",0,0,SHELL BUILDING,SHELL BUILDING,32.628224,-96.755537,10101,Bonnie View Rd,,,Dallas,TX,Dallas County,75241,US
Building (BU) Commercial  New Construction,1709191024,9/21/2017,1034 S BUCKNER BLVD,75217,58-L,"MTY REMODELING & CONSTRUCTION (972) 876-9720 526 DAWSON, DUNCANVILLE, TX 75116",0,0,GRADING ONLY,RESTAURANT WITHOUT DRIVE-IN SERVICE,32.730045,-96.682222,1034,S Buckner Blvd,,,Dallas,TX,Dallas County,75217,US
Building (BU) Commercial  New Construction,1703311098,9/22/2017,8605 E R L THORNTON FWY,75228,48-F,"NEWCRESTIMAGE CONSTRUCTION, LLC (214) 774-4650 1135 KINWEST PKWY, IRVING, TX 75034",0,0,NEW CONSTRUCTION,HOTEL,32.796001,-96.696056,8605,E R L Thornton Fwy,,,Dallas,TX,Dallas County,75228,US
Building (BU) Commercial  New Construction,1703221042,9/26/2017,3333 DAN MORTON DR,75236,"52-W,62-A","WHITING-TURNER CONTRACTING CO (469) 429-0800 2301 W PLANO #104, PLANO, TX 75075",0,0,NEW CONSTRUCTION,WATER TREATMENT PLANT,32.703895,-96.920078,3333,Dan Morton Dr,,,Dallas,TX,Dallas County,75236,US
Building (BU) Commercial  New Construction,1705221045,10/6/2017,1326 N MASTERS DR,75217,59-L,"THE CHARLES MORGAN GROUP LP (972) 772-9089 1551 I 30 EAST , STE: 100, ROCKWALL, TX 75087",0,0,NEW COMMERCIAL CONSTRUCTION,RESTAURANT WITH DRIVE-IN SERVICE,32.735007,-96.647851,1326,N Masters Dr,,,Dallas,TX,Dallas County,75217,US
Building (BU) Commercial  New Construction,1706081110,10/6/2017,2618 S LANCASTER RD,75216,55-T,"MAX ALLEY (903) 701-3232 3930 GALLERIA OAKS, TEXARKANA, TX 75504",0,0,NEW CONSTRUCTION,GEN MERCHANDISE OR FOOD STORE < 3500 SQ. FT.,32.716609,-96.803989,2618,S Lancaster Rd,,,Dallas,TX,Dallas County,75216,US
Building (BU) Commercial  New Construction,1710091089,10/10/2017,300 N HOUSTON ST,75219,45-J,"AUSTIN COMMERCIAL LP (214) 443-5700 3535 TRAVIS ST , DALLAS , TX 75203",0,0,NEW CONSTRUCTION,MUSEUM,32.781077,-96.809475,300,N Houston St,,,Dallas,TX,Dallas County,75202,US
Building (BU) Commercial  New Construction,1610261148,10/10/2017,1034 S BUCKNER BLVD,75217,58-L,"MTY REMODELING & CONSTRUCTION (972) 876-9720 526 DAWSON, DUNCANVILLE, TX 75116",0,0,JNEW CONSTRUCTION OF RESTAURANT,RESTAURANT WITHOUT DRIVE-IN SERVICE,32.730045,-96.682222,1034,S Buckner Blvd,,,Dallas,TX,Dallas County,75217,US
Building (BU) Commercial  New Construction,1704061136,10/10/2017,2570 LONE STAR DR,75212,43-U,"W B Kibler Construction Co. Ltd. (214) 358-4601 9722 ABERNATHY, DALLAS, TX 75220",0,0,NEW CONSTRUCTION,INDUSTRIAL (INSIDE),32.768321,-96.865244,2570,Lone Star Dr,,,Dallas,TX,Dallas County,75212,US
Building (BU) Commercial  New Construction,1707031045,10/11/2017,4710 S BUCKNER BLVD,75227,48-Q,"TURNKEY CONSTRUCTION (214) 503-6555 10755 SANDHILL RD, DALLAS, TX 75238",0,0,NEW CONSTRUCTION,GEN MERCHANDISE OR FOOD STORE < 3500 SQ. FT.,32.778401,-96.682294,4710,S Buckner Blvd,,,Dallas,TX,Dallas County,75227,US
Building (BU) Commercial  New Construction,1702171078,10/11/2017,4415 W LOVERS LN,75209,34-C, () - ,0,0,NEW CONSTRUCTION OF OFFICE BUILDING,OFFICE BUILDING,32.851521,-96.834264,4415,W Lovers Ln,,,Dallas,TX,Dallas County,75209,US
Building (BU) Commercial  New Construction,1703221104,10/13/2017,6907 BEXAR ST,75215,56-L,"WESTBROOK RENOVATIONS, LLC (214) 457-7790 18383 PRESTON RD STE 300, DALLAS, TX 75252",0,0,NEW CONSTRUCTION,"PRIVATE RECREATION CENTER, CLUB OR AREA",32.734608,-96.754126,6907,Bexar St,,,Dallas,TX,Dallas County,75215,US
Building (BU) Commercial  New Construction,1710161013,10/16/2017,10890 ROCKWALL RD,75238,"27-H,28-A,28-E","CONCRETE WALLS , INC (972) 880-1781 809 LAVON DRIVE, GARALAND, TX 75040",0,0,grading only,WAREHOUSE,32.899085,-96.70753,10890,Rockwall Rd,,,Dallas,TX,Dallas County,75238,US
Building (BU) Commercial  New Construction,1708071062,10/16/2017,308 N BISHOP AVE,75208,54-C,"REX CONSTRUCTION, LLC (214) 969-1091 101 N ZANG BLVD, STE 200, DALLAS, TX 75208",0,0,SHELL BLDG,SHELL BUILDING,32.747429,-96.827965,308,N Bishop Ave,,,Dallas,TX,Dallas County,75208,US
Building (BU) Commercial  New Construction,1710181083,10/19/2017,300 N HOUSTON ST,75219,45-J,"AUSTIN COMMERCIAL LP (214) 443-5700 3535 TRAVIS ST , DALLAS , TX 75203",0,0,FOUNDATION ONLY,MUSEUM,32.781077,-96.809475,300,N Houston St,,,Dallas,TX,Dallas County,75202,US
Building (BU) Commercial  New Construction,1708311093,10/23/2017,4910 S MERRIFIELD RD,75211,"61A-R,61B-N","FCL BUILDERS (469) 446-5635 7929 BROOKRIVER DR, SUITE# 630, DALLAS, TX 75247",0,0,"2 NEW INDUSTRIAL WAREHOUSES INCLUDING ALL UTILITIES, SHELL ONLY",SHELL BUILDING,32.67349,-96.967644,4910,S Merrifield Rd,,,Dallas,TX,Dallas County,75236,US
Building (BU) Commercial  New Construction,1710051111,10/23/2017,4910 S MERRIFIELD RD,75211,"61A-R,61B-N","FCL BUILDERS (469) 446-5635 7929 BROOKRIVER DR, SUITE# 630, DALLAS, TX 75247",0,0,grading only,SHELL BUILDING,32.67349,-96.967644,4910,S Merrifield Rd,,,Dallas,TX,Dallas County,75236,US
Building (BU) Commercial  New Construction,1703071162,11/6/2017,4701 CLEVELAND RD,75241,76-H,"PIAZZA CONSTRUCTION (903) 463-2384 2811 WOOD LAWN, DENISON, TX 75020",0,0,NEW CONSTRUCTION OF GARAGE,AUTO SERVICE CENTER,32.642597,-96.744258,4701,Cleveland Rd,,,Dallas,TX,Dallas County,75241,US
Building (BU) Commercial  New Construction,1705081091,11/7/2017,10890 ROCKWALL RD,75238,"27-H,28-A,28-E","MASTERPLAN CONSULTANTS (214) 684-2775 900 JACKSON ST, STE: #640, DALLAS, TX 75202",0,0,NEW CONSTRUCTION,WAREHOUSE,32.899085,-96.70753,10890,Rockwall Rd,,,Dallas,TX,Dallas County,75238,US
Building (BU) Commercial  New Construction,1708031140,11/10/2017,11400 N CENTRAL EXPY,75243,26-B,"RIDGEMONT CONSTRUCTION (214) 492-8900 1520 W WALNUT HILL LN, IRVING, TX 75038",0,0,NEW CONSTRUCTION,"VEHICLE DISPLAY,SALES AND SERVICE",32.902492,-96.767506,11400,N Central Expy,,,Dallas,TX,Dallas County,75243,US
Building (BU) Commercial  New Construction,1706261099,11/16/2017,2691 JOHN WEST RD,75228,39-W,"SCHAFFER CONSTRUCTION, LLC (972) 824-5583 P.O. Box 2431, Frisco, TX 75034",0,0,NEW CONSTRUCTION,GEN MERCHANDISE OR FOOD STORE < 3500 SQ. FT.,32.807503,-96.668655,2691,John West Rd,,,Dallas,TX,Dallas County,75228,US
Building (BU) Commercial  New Construction,1711291059,11/29/2017,3620 W CAMP WISDOM RD,75237,63-T,"TM SOURCE BUILDING GROUP, INC (817) 451-4958 5601 BRIDGE ST, STE 230, FORT WORTH, TX 76112",0,0,SHELL,SHELL BUILDING,32.661803,-96.878726,3620,W Camp Wisdom Rd,,,Dallas,TX,Dallas County,75237,US
Building (BU) Commercial  New Construction,1703031021,12/1/2017,2427 W MOCKINGBIRD LN,75235,34-N,"M L GRAY PARTNERSHIP (214) 628-9425 1811 GREENVILLE AVE. #150, DALLAS, TX 75206",0,0,SHELL BUILDING,SHELL BUILDING,32.827337,-96.846033,2427,W Mockingbird Ln,,,Dallas,TX,Dallas County,75235,US
Building (BU) Commercial  New Construction,1703031030,12/1/2017,2455 W MOCKINGBIRD LN,75235,34-N,"M L GRAY PARTNERSHIP (214) 628-9425 1811 GREENVILLE AVE. #150, DALLAS, TX 75206",0,0,SHELL BUILDING,SHELL BUILDING,32.827667,-96.845573,2455,W Mockingbird Ln,,,Dallas,TX,Dallas County,75235,US
Building (BU) Commercial  New Construction,1710301022,12/1/2017,17180 PRESTON RD,75248,"5-K,5-P","CPD COMMERICAL CONSTRUCTION LLC (817) 752-2015 104 ADALIDA LN, spring town, TX 76082",0,0,NEW CONSTRUCTION,ANIMAL SHELTER OR CLINIC,32.984744,-96.804384,17180,Preston Rd,,,Dallas,TX,Dallas County,75248,US
Building (BU) Commercial  New Construction,1703071006,12/1/2017,2339 W MOCKINGBIRD LN,75235,34-N,"M L GRAY PARTNERSHIP (214) 628-9425 1811 GREENVILLE AVE. #150, DALLAS, TX 75206",0,0,NEW CONSTRUCTION OF SHELL BUILDING,SHELL BUILDING,32.826977,-96.846441,2339,W Mockingbird Ln,,,Dallas,TX,Dallas County,75235,US
Building (BU) Commercial  New Construction,1703031012,12/1/2017,2337 W MOCKINGBIRD LN,75235,34-N,"M L GRAY PARTNERSHIP (214) 628-9425 1811 GREENVILLE AVE. #150, DALLAS, TX 75206",0,0,NEW CONSTRUCTION OF SHELL BLDG,SHELL BUILDING,32.82643,-96.846952,2337,W Mockingbird Ln,,,Dallas,TX,Dallas County,75235,US
Building (BU) Commercial  New Construction,1709121104,12/12/2017,7190 SKILLMAN ST,75231,"27-N,27-P","SPRING VALLEY CONSTRUCTION CO. (214) 340-9800 10950 Alder Circle, Dallas, TX 75238",0,0,NEW CONSTRUCTION: CREATING 2 SHELL SPACES,SHELL BUILDING,32.87663,-96.734024,7190,Skillman St,,,Dallas,TX,Dallas County,75231,US
Building (BU) Commercial  New Construction,1710171076,12/15/2017,6131 CHURCHILL WAY,75230,15-T,"STRATEGIC CONSTRUCTION LTD (972) 578-8072 801 E PLANO PKWY , STE 207, PLANO , TX 75074",0,0,NEW CONSTRUCTION,"CHURCH, SYNAGOGUE, TEMPLE, MOSQUE",32.91735,-96.800685,6131,Churchill Way,,,Dallas,TX,Dallas County,75230,US
Building (BU) Commercial  New Construction,1709271023,12/20/2017,1651 MATILDA ST,75206,36-X,"STREET LIGHTS RESIDENTIAL (972) 900-1570 3102 Oak Lawn Avenue, Suite 800, Dallas, TX 75219",0,0,NEW CONSTRUCTION,COMMUNITY SERVICE CENTER,32.810427,-96.768948,1651,Matilda St,,,Dallas,TX,Dallas County,75206,US
Building (BU) Commercial  New Construction,1711131096,12/21/2017,6411 E NORTHWEST HWY,75231,26-Z,"EMJ CORPORATION (972) 580-1210 5525 N MACARTHUR BLVD, STE 400, IRVING, TX 75038",0,0,SHELL BUILDING,SHELL BUILDING,32.858125,-96.750107,6411,E Northwest Hwy,,,Dallas,TX,Dallas County,75231,US
Building (BU) Commercial  New Construction,1612281123,7/18/2017,5606 WAYSIDE DR,75235,"34-S,34-W","RATCLIFF CONSTRUCTORS, L P (972) 432-9969 4200 BELTWAY DRIVE, ADDISON, TX 75001",17774,69,NEW CONSTRUCTION OF EARLY CHILDHOOD CENTER.,PUBLIC OR PRIVATE SCHOOL,32.814874,-96.851775,5606,Wayside Dr,,,Dallas,TX,Dallas County,75235,US
Building (BU) Commercial  New Construction,1709151105,11/6/2017,1636 N MASTERS DR,75217,59-G,"AMERICOM SITE DEVELOPMENT (936) 344-9052 555 STATE HIGHWAY 150 WEST, NEW WAVERLY , TX 77358",160000,80,NEW CELL TOWER,TOWER/ANTENNA FOR CELLULAR COMMUNICATION,32.741311,-96.647614,1636,N Masters Dr,,,Dallas,TX,Dallas County,75217,US
Building (BU) Commercial  New Construction,1612291073,1/25/2017,3904 W ILLINOIS AVE Ste:A,75211,53-S,"RMCI CONSTRUCTION LLC (817) 532-0833 6917 RUSSELL CURRY RD, ARLINGTON, TX 76001",26500,80,NEW CARRIER T-MOBILE SITE ON EXISTING ENCLOSED GROUND & CELL TOWER,TOWER/ANTENNA FOR CELLULAR COMMUNICATION,32.719457,-96.883611,3904,W Illinois Ave,Ste,A,Dallas,TX,Dallas County,75211,US
Building (BU) Commercial  New Construction,1711021027,11/14/2017,1907 N LAMAR ST Ste:D,75202,45-K,"BAUMAN CONSULTANTS (817) 271-0022 2300 SPRINGMERE DR, ARLINGTON, TX 76012-5672",12000,100,ANTENNA ADDITION,TOWER/ANTENNA FOR CELLULAR COMMUNICATION,32.782785,-96.806688,1907,N Lamar St,Ste,D,Dallas,TX,Dallas County,75202,US
Building (BU) Commercial  New Construction,1709281108,10/19/2017,3221 FALLS DR,75211,53-P,"TTI OPERATIONS (214) 316-5928 3222 FALLS, DALLAS, TX 75211",20000,112,REMOVE EXISTING VACANT WATER TIME KIOSK AND REPLACE WITH TWICE TH,GEN MERCHANDISE OR FOOD STORE < 3500 SQ. FT.,32.726771,-96.873957,3221,Falls Dr,,,Dallas,TX,Dallas County,75211,US
Building (BU) Commercial  New Construction,1711141064,12/4/2017,4114 MINT WAY,75237,63-J,"EPCO INDUSTRIAL CONTRACTORS, (972) 329-4594 3336 E HWY 80, MESQUITE, TX 75149",30568,195,CONSTRUCT COVERED AREA TO INSTALL NEW AIR COMPRESSOR,INDUSTRIAL (INSIDE),32.68441,-96.887484,4114,Mint Way,,,Dallas,TX,Dallas County,75237,US
Building (BU) Commercial  New Construction,1708211060,9/19/2017,2101 MEDICAL DISTRICT DR Ste:B,75235,"34-U,34-Y","ADVANCE CONTRACTING GROUP (469) 500-5921 2512 PROGRAM DR #109, DALLAS, TX 75220",90000,225,NEW BUILDING - BREAKROOM & RESTROOMS FOR DART OPPERATORS,TRANSIT PASSENGER SHELTER,32.813168,-96.833153,2101,Medical District Dr,,,Dallas,TX,Dallas County,75235,US
Building (BU) Commercial  New Construction,1708161080,10/30/2017,802 S LAMAR ST,75202,45-P,"ADVANCE CONTRACTING GROUP (469) 500-5921 2512 PROGRAM DR #109, DALLAS, TX 75220",90000,225,NEW BUILDING - BREAKROOM & RESTROOMS FOR DART OPPERATORS,TRANSIT PASSENGER SHELTER,32.772754,-96.801968,802,S Lamar St,,,Dallas,TX,Dallas County,75202,US
Building (BU) Commercial  New Construction,1705111070,5/26/2017,1350 CHALK HILL RD,75211,"42-Y,52-C","FAST-TRAK CONSTRUCTION INC (214) 638-0525 1150 EMPIRE CENTRAL, DALLAS, TX 75247",61500,240,NEW COMMERCIAL CONSTRUCTION,WAREHOUSE,32.75249,-96.90238,1350,Chalk Hill Rd,,,Dallas,TX,Dallas County,75211,US
Building (BU) Commercial  New Construction,1704211005,9/29/2017,3136 E ILLINOIS AVE,75216,56-S,"JLH REMOVAL LLC (512) 415-5951 4417 MARATHON BLVD, AUSTIN, TX 78756",5000,276,NEW COMMERCIAL CONSTRUCTION,OUTSIDE STORAGE,32.715689,-96.772988,3136,E Illinois Ave,,,Dallas,TX,Dallas County,75216,US
Building (BU) Commercial  New Construction,1609221005,2/9/2017,6010 WHISPERING CEDAR DR Ste:BU38,75236,"61B-H,61B-M,62-E,62-J","SPRING VALLEY CONSTRUCTION CO. (214) 340-9800 10950 Alder Circle, Dallas, TX 75238",75000,320,NEW CONSTRUCTION,"PRIVATE RECREATION CENTER, CLUB OR AREA",32.68801,-96.927577,6010,Whispering Cedar Dr,Ste,BU38,Dallas,TX,Dallas County,75236,US
Building (BU) Commercial  New Construction,1609221105,1/5/2017,2935 W COMMERCE ST,75212,43-Q,"JACKA, MICHAEL (574) 271-2921 7121 GRAPE, GRANGER, IN 46530",38000,363,NEW CONSTRUCTION,INDUSTRIAL (OUTSIDE),32.773588,-96.870959,2935,W Commerce St,,,Dallas,TX,Dallas County,75212,US
Building (BU) Commercial  New Construction,1710061027,12/6/2017,906 S RIVERFRONT BLVD Ste:D,75207,45-T,"ENERTECH RESOURCES (830) 387-4502 1820 WASTON LN EAST, NEW  BRAUNFELS, TX 78130",141000,375,NEW CONSTRUCTION,TOWER/ANTENNA FOR CELLULAR COMMUNICATION,32.767494,-96.804735,908,S Riverfront Blvd,Ste,D,Dallas,TX,Dallas County,75207,US
Building (BU) Commercial  New Construction,1609221006,2/9/2017,6010 WHISPERING CEDAR DR Ste:BU29,75236,"61B-H,61B-M,62-E,62-J","SPRING VALLEY CONSTRUCTION CO. (214) 340-9800 10950 Alder Circle, Dallas, TX 75238",50000,395,NEW CONSTRUCTION,"PRIVATE RECREATION CENTER, CLUB OR AREA",32.68801,-96.927577,6010,Whispering Cedar Dr,Ste,BU29,Dallas,TX,Dallas County,75236,US
Building (BU) Commercial  New Construction,1610211079,5/30/2017,3524 INWOOD RD,75209,34-R,"GATEWAY COMMERCIAL CONSTRUCTION , INC (214) 354-3363 421 N BRIERY RD, IRVING , TX 75061",50000,404,ADDITION  TO EXISTING STRUCTURE,AUTO SERVICE CENTER,32.829941,-96.825292,3524,Inwood Rd,,,Dallas,TX,Dallas County,75209,US
Building (BU) Commercial  New Construction,1610211078,5/30/2017,3524 INWOOD RD,75209,34-R,"GATEWAY COMMERCIAL CONSTRUCTION , INC (214) 354-3363 421 N BRIERY RD, IRVING , TX 75061",50000,404, ADDITION TO  EXISTING STRUCTURE ,AUTO SERVICE CENTER,32.829941,-96.825292,3524,Inwood Rd,,,Dallas,TX,Dallas County,75209,US
Building (BU) Commercial  New Construction,1701261114,3/7/2017,7000 SCYENE CIR,75227,48-U,"DOHERTY BROTHERS CONSTRUCTION (972) 880-5860 207 BROWN RD, ENNIS, TX ",210000,432,NEW COMMERCIAL CONSTRUCTION,ELECTRICAL SUBSTATION,32.767145,-96.682901,7000,Scyene Cir,,,Dallas,TX,Dallas County,75227,US
Building (BU) Commercial  New Construction,1604211149,2/16/2017,9763 FOREST LN Ste:D,75243,17-Y,"EASTEX TOWER (719) 632-8822 7345 TEMPLETON GAP RD, COLORADO SPRINGS, CO 80923",70000,432,NEW COMMERCIAL CONSTRUCTION,TOWER/ANTENNA FOR CELLULAR COMMUNICATION,32.909725,-96.720885,9763,Forest Ln,Ste,D,Dallas,TX,Dallas County,75243,US
Building (BU) Commercial  New Construction,1710261036,12/11/2017,10111 SHOREVIEW RD,75238,27-V,"ENERTECH RESOURCES (830) 387-4502 1820 WASTON LN EAST, NEW  BRAUNFELS, TX 78130",25000,450,CELL TOWER,TOWER/ANTENNA FOR CELLULAR COMMUNICATION,32.866046,-96.712394,10111,Shoreview Rd,,,Dallas,TX,Dallas County,75238,US
Building (BU) Commercial  New Construction,1708081131,8/28/2017,7130 LINDSLEY AVE Ste:BLDGD,75223,37-W,"SHIP BUILD PARTNERS (214) 428-2080 1709 GOULD ST, DALLAS, TX 75215",5000,450,NEW CONSTRUCTION,PUBLIC OR PRIVATE SCHOOL,32.80799,-96.737879,7130,Lindsley Ave,,,Dallas,TX,Dallas County,75223,US
Building (BU) Commercial  New Construction,1612141130,2/10/2017,6029 S R L THORNTON FWY,75232,64-R,"DELTA CONSTRUCTION (972) 556-0505 11500 N STEMMONS FRWY, Suite 100, DALLAS, TX 75229",45000,490,INSTALL NEW ACCESORY STRUCTURAL METAL BUILDING WITHOUT A/C,"MORTUARY, FUNERAL HOME, OR COMM. WEDDING CHAPEL",32.674102,-96.823648,6029,S R L Thornton Fwy,,,Dallas,TX,Dallas County,75232,US
Building (BU) Commercial  New Construction,1701171124,2/8/2017,6524 ALPHA RD,75240,"15-Q,15-R","MUCKLEROY & FALLS (817) 877-3510 1635 RODERS RD, FT WORTH, TX 76107",47000,576,NEW PUMP BUILDING,"PRIVATE RECREATION CENTER, CLUB OR AREA",32.931068,-96.793129,6524,Alpha Rd,,,Dallas,TX,Dallas County,75240,US
Building (BU) Commercial  New Construction,1702131064,5/15/2017,1110 TEA OLIVE LN,75212,44-P,"GOLD MEDAL POOLS (972) 712-4653 4326 PRESTON, FRISCO, TX 75034",70000,600,NEW CONSTRUCTION OF POOL AREA EQUIPMENT ROOM & RESTROOM,"PRIVATE RECREATION CENTER, CLUB OR AREA",32.776885,-96.840082,1110,Tea Olive Ln,,,Dallas,TX,Dallas County,75212,US
Building (BU) Commercial  New Construction,1707121046,7/18/2017,6214 CEDAR SPRINGS RD,75235,"34-P,34-Q","INPRO FABRICATION (817) 926-5050 5111 E CALIFORNIA, FORT WORTH, TX 76119",13000,648,NEW CONSTRUCTION OF CANOPIES,"VEHICLE DISPLAY,SALES AND SERVICE",32.830218,-96.835128,6214,Cedar Springs Rd,,,Dallas,TX,Dallas County,75235,US
Building (BU) Commercial  New Construction,1705101023,9/1/2017,6343 LAKE JUNE RD Ste:100,75217,57-M,"ROYAL BENGAL CONSTRUCTION INC. (214) 682-5973 2019 KENNETH HOPPER DR, MESQUITE, TX 75149",50000,667,NEW CONSTRUCTION,GEN MERCHANDISE OR FOOD STORE < 3500 SQ. FT.,32.734821,-96.711031,6343,Lake June Rd,Ste,100,Dallas,TX,Dallas County,75217,US
Building (BU) Commercial  New Construction,1706201055,8/23/2017,10900 PETAL ST,75238,"28-J,28-K","BALDWIN ASSOCIATES (214) 824-7949 3904 ELM STE B, DALLAS, TX 75226",26000,667,NEW CONSTRUCTION,"NURSERY, GARDEN SHOP, OR PLANT SALES",32.885365,-96.695289,10900,Petal St,,,Dallas,TX,Dallas County,75238,US
Building (BU) Commercial  New Construction,1703151009,4/11/2017,3909 ROSELAND AVE,75204,45-D,"BALDWIN ASSOCIATES (214) 824-7949 3904 ELM STE B, DALLAS, TX 75226",10000,667,NEW CONSTRUCTION TRAILER,TEMPORARY CONSTRUCTION OFFICE,32.799822,-96.786022,3909,Roseland Ave,,,Dallas,TX,Dallas County,75204,US
Building (BU) Commercial  New Construction,1707121054,7/28/2017,2864 AVA LN Ste:C,75227,"48-W,48-X","NEXIUS SOLUTIONS INC. (703) 650-7777 2595 Dallas Parkway Suite 300, Frisco, TX 75034",5000,700,NEW COMMERCIAL CONSTRUCTION,TOWER/ANTENNA FOR CELLULAR COMMUNICATION,32.759741,-96.69601,2864,Ava Ln,Ste,C,Dallas,TX,Dallas County,75227,US
Building (BU) Commercial  New Construction,1706271129,7/31/2017,146 PAYNE ST,75207,44-M,"DENISON RADIO SERVICE COMPANY (214) 684-1953 422 PEAVY RD, DALLAS, TX 75218",112700,740,ADDITION,OFFICE BUILDING,32.78484,-96.819323,146,Payne St,,,Dallas,TX,Dallas County,75207,US
Building (BU) Commercial  New Construction,1706211083,7/28/2017,3837 SIMPSON STUART RD Ste:10B,75241,"66-L,66-M,66-Q,66-R","MY MODULAR LLC (214) 597-7130 3527 stodghill road, rockwall, TX 75087",24000,752,NEW CONSTRUCTION,PUBLIC OR PRIVATE SCHOOL,32.680114,-96.754603,3837,Simpson Stuart Rd,Ste,10B,Dallas,TX,Dallas County,75241,US
Building (BU) Commercial  New Construction,1706211082,7/28/2017,3837 SIMPSON STUART RD Ste:10A,75241,"66-L,66-M,66-Q,66-R","MY MODULAR LLC (214) 597-7130 3527 stodghill road, rockwall, TX 75087",24000,752,NEW CONSTRUCTION,PUBLIC OR PRIVATE SCHOOL,32.680114,-96.754603,3837,Simpson Stuart Rd,Ste,10A,Dallas,TX,Dallas County,75241,US
Building (BU) Commercial  New Construction,1711081099,11/17/2017,3500 GOLDMAN ST,75212,43-M,"TURF SOLUTIONS GROUP (309) 691-4700 3523 WILLOW KNOLLS, PEORIA, IL 61614",24000,800,NEW COMMERCIAL CONSTRUCTION,"PRIVATE RECREATION CENTER, CLUB OR AREA",32.784971,-96.857953,3500,Goldman St,,,Dallas,TX,Dallas County,75212,US
Building (BU) Commercial  New Construction,1609221004,2/9/2017,6010 WHISPERING CEDAR DR Ste:BU38,75236,"61B-H,61B-M,62-E,62-J","SPRING VALLEY CONSTRUCTION CO. (214) 340-9800 10950 Alder Circle, Dallas, TX 75238",125000,872,NEW CONSTRUCTION,"PRIVATE RECREATION CENTER, CLUB OR AREA",32.68801,-96.927577,6010,Whispering Cedar Dr,Ste,BU38,Dallas,TX,Dallas County,75236,US
Building (BU) Commercial  New Construction,1708071060,10/16/2017,308 N BISHOP AVE,75208,54-C,"REX CONSTRUCTION, LLC (214) 969-1091 101 N ZANG BLVD, STE 200, DALLAS, TX 75208",90000,913,SHELL BLDG,SHELL BUILDING,32.747429,-96.827965,308,N Bishop Ave,,,Dallas,TX,Dallas County,75208,US
Building (BU) Commercial  New Construction,1611011097,2/21/2017,1550 STOREY LN,75220,33-A,"MCRIGHT-SMITH CONSTRUCTION, LLC (972) 608-8988 6900 N DALLAS PKWY #770, PLANO, TX 75024",100000,921,NEW CONSTRUCTION OF 3 BUILDINGS FOR STORAGE USE,OFFICE BUILDING,32.85147,-96.886997,1550,Storey Ln,,,Dallas,TX,Dallas County,75220,US
Building (BU) Commercial  New Construction,1708221091,8/30/2017,1025 S EWING AVE,75203,"54-H,54-M,55-E,55-J","DALLAS ZOO MANAGEMENT (972) 921-8233 650 S R L THORNTON FRWY, DALLAS, TX 75203",30000,945,NEW COMMERCIAL CONSTRUCTION,"PUBLIC PARK, PLAYGROUND, OR GOLF COURSE",32.742848,-96.81254,,S Ewing Ave,,,Dallas,TX,Dallas County,75203,US
Building (BU) Commercial  New Construction,1708221090,8/30/2017,1025 S EWING AVE,75203,"54-H,54-M,55-E,55-J","DALLAS ZOO MANAGEMENT (972) 921-8233 650 S R L THORNTON FRWY, DALLAS, TX 75203",30000,945,NEW COMMERCIAL CONSTRUCTION,"PUBLIC PARK, PLAYGROUND, OR GOLF COURSE",32.742848,-96.81254,,S Ewing Ave,,,Dallas,TX,Dallas County,75203,US
Building (BU) Commercial  New Construction,1706021104,6/30/2017,3000 MOUNTAIN CREEK PKWY,75211,"51B-T,51B-U,51B-X,51B-Y","DALLAS BAPTIST UNIVERSITY (214) 333-5122 3000 MOUNTAIN CREEK PARKWAY, DALLAS, TX 75211",200000,960,NEW CONSTRUCTION,"COLLEGE, UNIVERSITY, OR SEMINARY",32.710387,-96.94655,3000,Mountain Creek Pkwy,,,Dallas,TX,Dallas County,75211,US
Building (BU) Commercial  New Construction,1705101025,9/1/2017,6343 LAKE JUNE RD Ste:160,75217,57-M,"ROYAL BENGAL CONSTRUCTION INC. (214) 682-5973 2019 KENNETH HOPPER DR, MESQUITE, TX 75149",50000,975,NEW CONSTRUCTION,SHELL BUILDING,32.734821,-96.711031,6343,Lake June Rd,Ste,160,Dallas,TX,Dallas County,75217,US
Building (BU) Commercial  New Construction,1705101024,9/1/2017,6343 LAKE JUNE RD Ste:140,75217,57-M,"ROYAL BENGAL CONSTRUCTION INC. (214) 682-5973 2019 KENNETH HOPPER DR, MESQUITE, TX 75149",50000,975,NEW CONSTRUCTION,SHELL BUILDING,32.734821,-96.711031,6343,Lake June Rd,Ste,140,Dallas,TX,Dallas County,75217,US
Building (BU) Commercial  New Construction,1612201063,3/15/2017,750 FORT WORTH AVE Ste:H120,75208,44-U,"CONSTRUCTIONOLOGISTS LLC (469) 774-2941 3960 DEEP VALLEY, DALLAS, TX ",50000,984,FIRST TIME FINISH OUT,RESTAURANT WITHOUT DRIVE-IN SERVICE,32.769081,-96.835084,750,Ft Worth Ave,Ste,H120,Dallas,TX,Dallas County,75208,US
Building (BU) Commercial  New Construction,1705091134,9/12/2017,1332 GUARD DR Ste:BU 1,75217,57-M,"ROYAL BENGAL CONSTRUCTION INC. (214) 682-5973 2019 KENNETH HOPPER DR, MESQUITE, TX 75149",50000,1000,NEW CONSTRUCTION,MINI-WAREHOUSE,32.738249,-96.711672,1332,Guard Dr,Ste,BU,Dallas,TX,Dallas County,75217,US
Building (BU) Commercial  New Construction,1708231005,9/21/2017,2410 S BECKLEY AVE Ste:A,75216,54-V,"TOI INTERNATIONAL T1, LLC (281) 548-0091 1218 CARPENTER RD, HUMBLE, TX 77396",50000,1000,NEW CONSTRUCTION,TOWER/ANTENNA FOR CELLULAR COMMUNICATION,32.718773,-96.822551,2410,S Beckley Ave,Ste,A,Dallas,TX,Dallas County,75224,US
Building (BU) Commercial  New Construction,1711061133,12/5/2017,7134 CAMPBELL RD,,,"ACECO SERVICE INC (214) 789-8437 3820 VITRUVIAN #531, ADDISON, TX 75001",48000,1000,INTERIONR REMODEL,GEN MERCHANDISE OR FOOD STORE < 3500 SQ. FT.,33.12254,-95.934428,,,,,Campbell,TX,Hunt County,75422,US
Building (BU) Commercial  New Construction,1610271212,3/28/2017,111 W DAVIS ST Ste:180,75208,54-D,"ANDRES CONSTRUCTION SERVICES (214) 521-2118 3710 RAWLINS DR, SUITE 1510, DALLAS, TX 75219",100000,1012,NEW COMMERCIAL CONSTRUCTION,SHELL BUILDING,32.750202,-96.823454,111,W Davis St,Ste,180,Dallas,TX,Dallas County,75208,US
Building (BU) Commercial  New Construction,1609221010,2/9/2017,6010 WHISPERING CEDAR DR Ste:BU30,75236,"61B-H,61B-M,62-E,62-J","SPRING VALLEY CONSTRUCTION CO. (214) 340-9800 10950 Alder Circle, Dallas, TX 75238",175000,1035,NEW CONSTRUCTION,"PRIVATE RECREATION CENTER, CLUB OR AREA",32.68801,-96.927577,6010,Whispering Cedar Dr,Ste,BU30,Dallas,TX,Dallas County,75236,US
Building (BU) Commercial  New Construction,1703071040,8/31/2017,1445 TURTLE CREEK BLVD,75207,44-H,"ANDRES CONSTRUCTION SERVICES (214) 521-2118 3710 RAWLINS DR, SUITE 1510, DALLAS, TX 75219",3740000,1085,NEW CONSTRUCTION,HOTEL,32.796428,-96.822393,1445,Turtle Creek Blvd,,,Dallas,TX,Dallas County,75207,US
Building (BU) Commercial  New Construction,1605111096,1/6/2017,4246 W LOVERS LN,75209,34-B,"BARROW BUILDERS GROUP (214) 755-7300 4303 W LOVERS, STE 200, DALLAS, TX 75209",75000,1098,NEW CONSTRUCTION OFFICE BUILDING ,OFFICE BUILDING,32.85097,-96.837766,4246,W Lovers Ln,,,Dallas,TX,Dallas County,75209,US
Building (BU) Commercial  New Construction,1706301094,8/10/2017,9730 N CENTRAL EXPY,75231,26-P,"JM CONSTRUCTION SOLUTIONS, LLC (713) 494-9540 5015 N CENTRAL EPXWY , DALLAS, TX 75205",85000,1100,FIRST TIME FINISH OUT,RESTAURANT WITHOUT DRIVE-IN SERVICE,32.880942,-96.769358,9730,N Central Expy,,,Dallas,TX,Dallas County,75231,US
Building (BU) Commercial  New Construction,1609221108,1/5/2017,2935 W COMMERCE ST,75212,43-Q,"JACKA, MICHAEL (574) 271-2921 7121 GRAPE, GRANGER, IN 46530",48000,1139,NEW CONSTRUCTION,INDUSTRIAL (OUTSIDE),32.773588,-96.870959,2935,W Commerce St,,,Dallas,TX,Dallas County,75212,US
Building (BU) Commercial  New Construction,1608301132,1/6/2017,2823 MAIN ST,75226,45-M,"VERTICON CONSTRUCTION LLC (972) 544-7445 14388 PROTON, DALLAS, TX ",138761,1168,1ST TIME FINISH OUT 2ND FLOOR ,RESTAURANT WITHOUT DRIVE-IN SERVICE,32.784468,-96.782774,2823,Main St,,,Dallas,TX,Dallas County,75226,US
Building (BU) Commercial  New Construction,1610241166,8/10/2017,1747 LEONARD ST,75201,"45-G,45-L","AUSTIN COMMERCIAL LP (214) 443-5700 3535 TRAVIS ST , DALLAS , TX 75203",362949,1181,,SHELL BUILDING,32.789716,-96.796869,1747,Leonard St,,,Dallas,TX,Dallas County,75201,US
Building (BU) Commercial  New Construction,1605041179,1/13/2017,7035 W WHEATLAND RD,75249,71B-C,"B & M WEST CONSTRUCTION CO (863) 519-4441 BOX 949, MULBERRY , FL 33860",902100,1200,NEW CONSTRUCTIUON OF CONVENIENCE STORE W/ FUELING STATION,GEN MERCHANDISE OR FOOD STORE > 3500 SQ. FT.,32.647056,-96.94421,7035,W Wheatland Rd,,,Dallas,TX,Dallas County,75249,US
Building (BU) Commercial  New Construction,1406241061,6/1/2017,5415 PARKDALE DR,75227,47-K,"MORENO'S CONSTRUCTION (214) 347-6058 8730 WADLINGTON , DALLAS, TX 75217",35000,1200,NEW COMMERCIAL CONSTRUCTION,VEHICLE OR ENGINE REPAIR OR MAINTENANCE,32.782714,-96.726309,5415,Parkdale Dr,,,Dallas,TX,Dallas County,75227,US
Building (BU) Commercial  New Construction,1708141159,9/28/2017,2415 N HASKELL AVE Ste:113,75204,"45-C,45-D","WARWICK CONSTRUCTION, INC. (832) 448-7000 365 FM 1959, HOUSTON, TX 77034",20000,1200,Addition,GEN MERCHANDISE OR FOOD STORE > 3500 SQ. FT.,32.803521,-96.789577,2415,N Haskell Ave,Ste,113,Dallas,TX,Dallas County,75204,US
Building (BU) Commercial  New Construction,1707211092,12/20/2017,3505 BARNES BRIDGE RD,75228,39-F,"CRESCENT CONSTRUCTORS, INC (972) 783-6901 1100 GRINNELL DRIVE, RICHARDSON, TX 75081",122000,1250,NEW CONSTRUCTION,LOCAL UTILITIES,32.84705,-96.657589,3505,Barnes Bridge Rd,,,Dallas,TX,Dallas County,75228,US
Building (BU) Commercial  New Construction,1611221100,3/13/2017,4880 MOUNTAIN CREEK PKWY,75211,"61A-R,61B-N","VICTRON STORES LP (469) 517-2000 105 YMCA DR., WAXAHACHIE, TX 75165",75000,1260,NEW CONSTRUCTION OF C-STORE/GAS STATION/RESTAURANTS,GEN MERCHANDISE OR FOOD STORE < 3500 SQ. FT.,32.672562,-96.968048,4880,Mountain Creek Pkwy,,,Dallas,TX,Dallas County,75236,US
Building (BU) Commercial  New Construction,1609021143,1/23/2017,2304 W MOCKINGBIRD LN,75235,34-N,"DOUGLAS COOK ENTERPISES, LLC (504) 455-7762 125 ZINNIA  AVE, METARIRIE, LA 70001",605000,1300,construct new building ,RESTAURANT WITH DRIVE-IN SERVICE,32.825575,-96.846975,2304,W Mockingbird Ln,,,Dallas,TX,Dallas County,75235,US
Building (BU) Commercial  New Construction,1705031139,10/13/2017,6625 ALPHA RD,75240,"15-Q,15-R","MUCKLEROY & FALLS (817) 877-3510 1635 RODERS RD, FT WORTH, TX 76107",400000,1400,NEW CONSTRUCTION OF BATHROOM,"PRIVATE RECREATION CENTER, CLUB OR AREA",32.935534,-96.79323,6625,Alpha Rd,,,Dallas,TX,Dallas County,75240,US
Building (BU) Commercial  New Construction,1704121028,9/25/2017,7170 SKILLMAN ST Ste:120,75231,"27-N,27-P","THE ALLIANCE CONSTRUCTION GROUP LLC (940) 241-1790 2652 FM407 STE 245, BARTONVILLE, TX 76226",150000,1409,FIRST TIME FINISH OUT,RESTAURANT WITHOUT DRIVE-IN SERVICE,32.87663,-96.734024,7170,Skillman St,Ste,120,Dallas,TX,Dallas County,75231,US
Building (BU) Commercial  New Construction,1702221067,3/27/2017,9655 AUDELIA RD,75238,27-Q,"J & K PROJECT MANAGEMENT CONSULTANTS LLC (972) 436-1144 350 MCDONNELL ST, LEWISVILLE, TX 75057",850000,1463,NEW CONSTRUCTION RETAIL,RESTAURANT WITH DRIVE-IN SERVICE,32.877703,-96.718469,9655,Audelia Rd,,,Dallas,TX,Dallas County,75238,US
Building (BU) Commercial  New Construction,1611301042,3/28/2017,111 W DAVIS ST Ste:100,75208,54-D,"ANDRES CONSTRUCTION SERVICES (214) 521-2118 3710 RAWLINS DR, SUITE 1510, DALLAS, TX 75219",150000,1477,NEW COMMERCIAL CONSTRUCTION,SHELL BUILDING,32.750202,-96.823454,111,W Davis St,Ste,100,Dallas,TX,Dallas County,75208,US
Building (BU) Commercial  New Construction,1710301001,11/30/2017,3175 COOMBS CREEK DR Ste:A,75233,"53-W,53-X","AMERICOM SITE DEVELOPMENT (936) 344-9052 555 STATE HIGHWAY 150 WEST, NEW WAVERLY , TX 77358",80000,1500,NEW CONSTRUCTION,TOWER/ANTENNA FOR CELLULAR COMMUNICATION,32.706524,-96.881156,3175,Coombs Creek Dr,Ste,A,Dallas,TX,Dallas County,75233,US
Building (BU) Commercial  New Construction,1708011131,9/7/2017,6010 WHISPERING CEDAR DR Ste:BU43,75236,"61B-H,61B-M,62-E,62-J","SPRING VALLEY CONSTRUCTION CO. (214) 340-9800 10950 Alder Circle, Dallas, TX 75238",250000,1534,NEW CONSTRUCTION,"PRIVATE RECREATION CENTER, CLUB OR AREA",32.68801,-96.927577,6010,Whispering Cedar Dr,Ste,BU43,Dallas,TX,Dallas County,75236,US
Building (BU) Commercial  New Construction,1705121049,7/6/2017,6767 BRENTFIELD DR,75248,"5-Q,5-R,5-U,5-V","BARTLETT COCKE GENERAL CONTRACTOR (817) 952-3270 14500 TRINITY BLVD STE 106, FORT WORTH, TX 76155",26666.66,1536,INSTALL 3 PORTABLE/REMODEL CLASSROOM,PUBLIC OR PRIVATE SCHOOL,32.975544,-96.790406,6767,Brentfield Dr,,,Dallas,TX,Dallas County,75248,US
Building (BU) Commercial  New Construction,1708031082,8/18/2017,7894 SAMUELL BLVD,75227,"48-G,48-L","ZONE SYSTEMS INC. (214) 941-4440 1620 HANDLEY DR, SUITE A, DALLAS, TX 75208",5000,1536,NEW CONSTRUCTIOIN,PUBLIC OR PRIVATE SCHOOL,32.789906,-96.676741,7890,Samuell Blvd,,,Dallas,TX,Dallas County,75228,US
Building (BU) Commercial  New Construction,1708031081,8/18/2017,7894 SAMUELL BLVD,75227,"48-G,48-L","ZONE SYSTEMS INC. (214) 941-4440 1620 HANDLEY DR, SUITE A, DALLAS, TX 75208",5000,1536,NEW CONSTRUCTIOIN,PUBLIC OR PRIVATE SCHOOL,32.789906,-96.676741,7890,Samuell Blvd,,,Dallas,TX,Dallas County,75228,US
Building (BU) Commercial  New Construction,1708031083,8/18/2017,7894 SAMUELL BLVD,75227,"48-G,48-L","ZONE SYSTEMS INC. (214) 941-4440 1620 HANDLEY DR, SUITE A, DALLAS, TX 75208",5000,1536,NEW CONSTRUCTIOIN,PUBLIC OR PRIVATE SCHOOL,32.789906,-96.676741,7890,Samuell Blvd,,,Dallas,TX,Dallas County,75228,US
Building (BU) Commercial  New Construction,1706151053,6/29/2017,7370 VALLEY GLEN DR,75228,"47-F,47-G","TEGRITY CONTRACTORS INC (972) 562-6060 202 N ALLEN DR, ALLEN, TX 75013",20000,1544,NEW CONSTRUTION OF CANOPIES,PUBLIC OR PRIVATE SCHOOL,32.795733,-96.723945,7370,Valley Glen Dr,,,Dallas,TX,Dallas County,75228,US
Building (BU) Commercial  New Construction,1610241164,8/10/2017,1747 LEONARD ST,75201,"45-G,45-L","AUSTIN COMMERCIAL LP (214) 443-5700 3535 TRAVIS ST , DALLAS , TX 75203",479731,1561,,SHELL BUILDING,32.789716,-96.796869,1747,Leonard St,,,Dallas,TX,Dallas County,75201,US
Building (BU) Commercial  New Construction,1704121175,6/7/2017,5304 S R L THORNTON FWY Ste:A,75241,64-M,"ENERTECH RESOURCES (830) 387-4502 1820 WASTON LN EAST, NEW  BRAUNFELS, TX 78130",48000,1600,INSTALL A NEW CELL TOWER WITH ADJOINING COMPOUND WITH ONE CARRIER,TOWER/ANTENNA FOR CELLULAR COMMUNICATION,32.681397,-96.822014,5214,S R L Thornton Fwy,Ste,A,Dallas,TX,Dallas County,75241,US
Building (BU) Commercial  New Construction,1704121190,10/6/2017,7174 S R L THORNTON FWY Ste:A,75241,"64-V,64-Z","ENERTECH RESOURCES (830) 387-4502 1820 WASTON LN EAST, NEW  BRAUNFELS, TX 78130",48000,1600,INSTALL A NEW CELL TOWER WITH ADJOINING COMPOUND WITH ONE CARRIER,TOWER/ANTENNA FOR CELLULAR COMMUNICATION,32.662032,-96.821319,7200,S R L Thornton Fwy,Ste,A,Dallas,TX,Dallas County,75232,US
Building (BU) Commercial  New Construction,1707121103,12/27/2017,10613 SPANGLER RD,75220,22-T,"LIONHEAD HOLDINGS (214) 226-2525 900 DRAGON ST #150, DALLAS, TX 75207",10000,1625,NEW COMMERCIAL CONSTRUCTION,COMMERCIAL MOTOR VEHICLE PARKING,32.87174,-96.914071,10613,Spangler Rd,,,Dallas,TX,Dallas County,75220,US
Building (BU) Commercial  New Construction,1704181047,7/18/2017,9777 GREENVILLE AVE,75243,16-Z,"WAFFLE HOUSE INC (770) 729-5700 5986 FINANCIAL DR, NORCROSS, GA 30071",300000,1700,NEW CONSTRUCTION OF RESTAURANT,RESTAURANT WITHOUT DRIVE-IN SERVICE,32.908512,-96.747649,9777,Greenville Ave,,,Dallas,TX,Dallas County,75243,US
Building (BU) Commercial  New Construction,1610191032,7/26/2017,5850 ELAM RD,75217,"57-P,57-Q,57-T,57-U,57-X,57-Y","SCOTT & REID (469) 374-3400 17300 DALLAS PKWY, SUITE 2000, DALLAS, TX 75248",200000,1700,NEW COMMERCIAL CONSTRUCTION,"PUBLIC PARK, PLAYGROUND, OR GOLF COURSE",32.716222,-96.729146,5930,Elam Rd,,,Dallas,TX,Dallas County,75217,US
Building (BU) Commercial  New Construction,1701091156,1/27/2017,4640 MCKINNEY AVE Ste:160,75205,35-R,"SOUTHLAKE GENERAL CONTRACTORS (214) 466-2702 5302 BELTLINE RD, SUITE A, DALLAS, TX 75254",125000,1700,FIRST TIME FINISH OUT,PERSONAL SERVICE USE,32.823891,-96.786558,4640,McKinney Ave,Ste,160,Dallas,TX,Dallas County,75205,US
Building (BU) Commercial  New Construction,1707031044,10/11/2017,4710 S BUCKNER BLVD,75227,48-Q,"TURNKEY CONSTRUCTION (214) 503-6555 10755 SANDHILL RD, DALLAS, TX 75238",400000,1800,NEW CONSTRUCTION,GEN MERCHANDISE OR FOOD STORE < 3500 SQ. FT.,32.778401,-96.682294,4710,S Buckner Blvd,,,Dallas,TX,Dallas County,75227,US
Building (BU) Commercial  New Construction,1601141116,10/10/2017,4722 MILITARY PKWY,75223,47-J,"BALDERAS CONSTRUCTION (214) 881-6234 8560 PARK LN APT 41, DALLAS, TX 75231",48000,1856,NEW COMMERCIAL CONSTRUCTION,CONTRACTOR'S MAINTENANCE YARD,32.7828,-96.736643,4722,Military Pkwy,,,Dallas,TX,Dallas County,75223,US
Building (BU) Commercial  New Construction,1608301109,1/6/2017,2823 MAIN ST,75226,45-M,"VERTICON CONSTRUCTION LLC (972) 544-7445 14388 PROTON, DALLAS, TX ",138761,1884,1ST TIME FINISH OUT 1ST FLOOR LEFT,RESTAURANT WITHOUT DRIVE-IN SERVICE,32.784468,-96.782774,2823,Main St,,,Dallas,TX,Dallas County,75226,US
Building (BU) Commercial  New Construction,1709121105,12/12/2017,7190 SKILLMAN ST Ste:100,75231,"27-N,27-P","SPRING VALLEY CONSTRUCTION CO. (214) 340-9800 10950 Alder Circle, Dallas, TX 75238",738500,1905,NEW CONSTRUCTION SHELL BLDG ,SHELL BUILDING,32.87663,-96.734024,7190,Skillman St,Ste,100,Dallas,TX,Dallas County,75231,US
Building (BU) Commercial  New Construction,1706091035,8/9/2017,4349 W NORTHWEST HWY,75220,"24-T,24-X","SPAW-GLASS CONSTRUCTRUCTION (817) 288-0890 1000 W MAGNOLIA AVE, FORT WORTH, TX 76104",1000000,1920,PHASE 1 ADDITION,SHELL BUILDING,32.86546,-96.835741,4349,W Northwest Hwy,,,Dallas,TX,Dallas County,75220,US
Building (BU) Commercial  New Construction,1706141096,8/10/2017,17808 DALLAS PKWY Ste:BU2,,,"VERDE VALLEY CONSTRUCTION (972) 663-3713 2600 DALLAS PKWY SUITE 290, FRISCO, TX 75034",40000,1960,NEW CONSTRUCTION,FINANCIAL INSTITUTION WITH DRIVE-IN WINDOW,32.781179,-96.790329,,,,,Dallas,TX,Dallas County,75201,US
Building (BU) Commercial  New Construction,1611091012,2/13/2017,12747 MIDWAY RD Ste:150,75244,14-T,"ROCKPORT CONSTRUCTION GROUP (972) 363-0722 1600 n collins blvd #1725, richardson, TX 75080",160000,1999,,MEDICAL CLINIC OR AMBULATORY SURGICAL CENTER,32.921314,-96.838707,12747,Midway Rd,Ste,150,Dallas,TX,Dallas County,75244,US
Building (BU) Commercial  New Construction,1709121106,12/12/2017,7190 SKILLMAN ST Ste:110,75231,"27-N,27-P","SPRING VALLEY CONSTRUCTION CO. (214) 340-9800 10950 Alder Circle, Dallas, TX 75238",738500,2000,NEW CONSTRUCTION SHELL BLDG ,SHELL BUILDING,32.87663,-96.734024,7190,Skillman St,Ste,110,Dallas,TX,Dallas County,75231,US
Building (BU) Commercial  New Construction,1501081113,10/30/2017,875 S R L THORNTON FWY,75203,54-H,"ALARCON CONSTRUCTION GROUP (214) 402-2346 17527 OAK MOUNT PL, DALLAS, TX 75287-7532",230000,2000,NEW COMMERCIAL CONSTRUCTION,OFFICE BUILDING,32.741488,-96.821814,875,S R L Thornton Fwy,,,Dallas,TX,Dallas County,75203,US
Building (BU) Commercial  New Construction,1501081112,10/30/2017,875 S R L THORNTON FWY,75203,54-H,"ALARCON CONSTRUCTION GROUP (214) 402-2346 17527 OAK MOUNT PL, DALLAS, TX 75287-7532",210000,2000,NEW COMMERCIAL CONSTRUCTION,CHILD CARE FACILITY,32.741488,-96.821814,875,S R L Thornton Fwy,,,Dallas,TX,Dallas County,75203,US
Building (BU) Commercial  New Construction,1609221007,2/9/2017,6010 WHISPERING CEDAR DR Ste:BU5,75236,"61B-H,61B-M,62-E,62-J","SPRING VALLEY CONSTRUCTION CO. (214) 340-9800 10950 Alder Circle, Dallas, TX 75238",250000,2119,NEW CONSTRUCTION,"PRIVATE RECREATION CENTER, CLUB OR AREA",32.68801,-96.927577,6010,Whispering Cedar Dr,Ste,BU5,Dallas,TX,Dallas County,75236,US
Building (BU) Commercial  New Construction,1705121131,9/12/2017,10310 LAKE JUNE RD,75217,59-L,"HORIZON GENERAL CONTRACTOR (817) 244-7730 7315 W ELIZABETH LA, FT WORTH, TX 76116",375000,2162,NEW CONSTRUCTION,RESTAURANT WITH DRIVE-IN SERVICE,32.733557,-96.645844,10310,Lake June Rd,,,Dallas,TX,Dallas County,75217,US
Building (BU) Commercial  New Construction,1610241163,8/10/2017,1717 LEONARD ST,75201,"45-G,45-L","AUSTIN COMMERCIAL LP (214) 443-5700 3535 TRAVIS ST , DALLAS , TX 75203",677725,2188,,HOTEL,32.789716,-96.796869,1717,Leonard St,,,Dallas,TX,Dallas County,75201,US
Building (BU) Commercial  New Construction,1703031029,12/1/2017,2455 W MOCKINGBIRD LN,75235,34-N,"M L GRAY PARTNERSHIP (214) 628-9425 1811 GREENVILLE AVE. #150, DALLAS, TX 75206",250000,2199,SHELL BUILDING,SHELL BUILDING,32.827667,-96.845573,2455,W Mockingbird Ln,,,Dallas,TX,Dallas County,75235,US
Building (BU) Commercial  New Construction,1610241147,8/10/2017,1717 LEONARD ST,75201,"45-G,45-L","AUSTIN COMMERCIAL LP (214) 443-5700 3535 TRAVIS ST , DALLAS , TX 75203",311718,2229,,SHELL BUILDING,32.789716,-96.796869,1717,Leonard St,,,Dallas,TX,Dallas County,75201,US
Building (BU) Commercial  New Construction,1701111108,7/14/2017,9707 WEBB CHAPEL RD,75220,23-U,"THE DIMENSION GROUP (214) 343-9400 10755 SANDHILL ROAD, DALLAS, TX 75238",150000,2260,NEW COMMERCIAL CONSTRUCTION,GEN MERCHANDISE OR FOOD STORE < 3500 SQ. FT.,32.86589,-96.864365,9707,Webb Chapel Rd,,,Dallas,TX,Dallas County,75220,US
Building (BU) Commercial  New Construction,1609221116,5/23/2017,5580 S BUCKNER BLVD,75228,48-G,"THE CHARLES MORGAN GROUP LP (972) 772-9089 1551 I 30 EAST , STE: 100, ROCKWALL, TX 75087",500000,2300,NEW COMMERCIAL CONSTRUCTION,RESTAURANT WITH DRIVE-IN SERVICE,32.793717,-96.684241,5580,S Buckner Blvd,,,Dallas,TX,Dallas County,75228,US
Building (BU) Commercial  New Construction,1703221103,10/13/2017,6907 BEXAR ST,75215,56-L,"WESTBROOK RENOVATIONS, LLC (214) 457-7790 18383 PRESTON RD STE 300, DALLAS, TX 75252",338000,2324,NEW CONSTRUCTION,"PRIVATE RECREATION CENTER, CLUB OR AREA",32.734608,-96.754126,6907,Bexar St,,,Dallas,TX,Dallas County,75215,US
Building (BU) Commercial  New Construction,1609161085,2/9/2017,6010 WHISPERING CEDAR DR Ste:BU29,75236,"61B-H,61B-M,62-E,62-J","SPRING VALLEY CONSTRUCTION CO. (214) 340-9800 10950 Alder Circle, Dallas, TX 75238",250000,2370,NEW CONSTRUCTION,"PRIVATE RECREATION CENTER, CLUB OR AREA",32.68801,-96.927577,6010,Whispering Cedar Dr,Ste,BU29,Dallas,TX,Dallas County,75236,US
Building (BU) Commercial  New Construction,1705221046,10/6/2017,1326 N MASTERS DR,75217,59-L,"THE CHARLES MORGAN GROUP LP (972) 772-9089 1551 I 30 EAST , STE: 100, ROCKWALL, TX 75087",500000,2383,NEW COMMERCIAL CONSTRUCTION,RESTAURANT WITH DRIVE-IN SERVICE,32.735007,-96.647851,1326,N Masters Dr,,,Dallas,TX,Dallas County,75217,US
Building (BU) Commercial  New Construction,1706191042,7/12/2017,9890 BONNIE VIEW RD,75241,"76-L,76-M,76-R","MYCON GENERAL CONTRACTOR (972) 529-2444 17311 DALLAS PKWY , STE 300, DALLAS, TX 75424",303624,2390,OFFICE WAREHOUSE/SHELL,OFFICE SHOWROOM/WAREHOUSE,32.629562,-96.750564,9890,Bonnie View Rd,,,Dallas,TX,Dallas County,75241,US
Building (BU) Commercial  New Construction,1604291119,5/9/2017,5506 S COCKRELL HILL RD,75237,62-M,"EDDIE EDUARDO ELLIS CONSTRUCTION (214) 762-5148 1103 HEATHER CIR, CEDAR HILL, TX ",48000,2400,NEW COMMERCIAL CONSTRUCTION,AUTO SERVICE CENTER,32.679214,-96.890816,5506,S Cockrell Hill Rd,,,Dallas,TX,Dallas County,75236,US
Building (BU) Commercial  New Construction,1705101035,9/12/2017,1332 GUARD DR Ste:BU 3,75217,57-M,"ROYAL BENGAL CONSTRUCTION INC. (214) 682-5973 2019 KENNETH HOPPER DR, MESQUITE, TX 75149",26000,2400,NEW CONSTRUCTION,MINI-WAREHOUSE,32.738249,-96.711672,1332,Guard Dr,Ste,BU,Dallas,TX,Dallas County,75217,US
Building (BU) Commercial  New Construction,1609141148,2/16/2017,4139 MIDDLEFIELD RD,75253,"69-X,69-Y,79-B,79-C","VISTA CLEARANCE DRAFTING & DESIGN (214) 779-3577 4404 CENTRAL LN, BALCH SPRINGS , TX 75120",7000,2400,CONSTRUCT A HORSE BARN. NO NEW PAVING.,COMMERCIAL STABLE,32.65273,-96.652148,4139,Middlefield Rd,,,Dallas,TX,Dallas County,75253,US
Building (BU) Commercial  New Construction,1705091105,7/11/2017,2912 NAMUR ST,75227,49-Y,"SABRE/MUTI (217) 819-3041 555 ENTERPRISE DR, EDMOND, OK 73013",50000,2500,CONSTRUCT NEW MONOPOLE CELL TOWER & PROVIDE NEW (T-MOBILE) ANTENNAS WITH GROUND EQUIPMENT,TOWER/ANTENNA FOR CELLULAR COMMUNICATION,32.761368,-96.646321,2912,Namur St,,,Dallas,TX,Dallas County,75227,US
Building (BU) Commercial  New Construction,1707131003,10/13/2017,2720 LIVE OAK ST,75204,"45-H,45-M", () - ,900000,2507,NEW CONSTRUCTION GEN. MERCH ,GEN MERCHANDISE OR FOOD STORE > 3500 SQ. FT.,32.788903,-96.788422,2720,Live Oak St,,,Dallas,TX,Dallas County,75204,US
Building (BU) Commercial  New Construction,1610051079,3/27/2017,10905 SANDEN DR,75238,"28-A,28-B,28-E,28-F","F & K BUILDERS (214) 213-1955 1616 SHIRLEY WAY, BEDFORD, TX 76022",260000,2526,NEW CONSTRUCTION,COMMERCIAL MOTOR VEHICLE PARKING,32.899882,-96.696277,10905,Sanden Dr,,,Dallas,TX,Dallas County,75238,US
Building (BU) Commercial  New Construction,1611081067,3/1/2017,2303 BICKERS ST,75212,"43-H,43-M","SKILES GROUP INC (972) 644-2444 1810 N. Greenville Ave., Richardson, TX 75081",3090000,2555,NEW CONSTRUCTION OF BASEBALL STADIUM,"PUBLIC PARK, PLAYGROUND, OR GOLF COURSE",32.787919,-96.857653,2303,Bickers St,,,Dallas,TX,Dallas County,75212,US
Building (BU) Commercial  New Construction,1701061057,8/14/2017,4203 S LANCASTER RD,75216,65-C,"PHILLIPS MAY CORPORATION (214) 631-3331 1125 LONGPOINT AVE, DALLAS, TX 75247",850000,2617,ADDITION OF NEW BLDG W/ 2 CLASS ROOMS ,PUBLIC OR PRIVATE SCHOOL,32.697406,-96.795805,4203,S Lancaster Rd,,,Dallas,TX,Dallas County,75216,US
Building (BU) Commercial  New Construction,1701111133,6/21/2017,1632 MARKET CENTER BLVD,75207,44-H,"GREEN TAG CONSTRUCTION (972) 540-6331 3121 McKinney St, Melissa, TX 75454",400000,2646,,RESTAURANT WITHOUT DRIVE-IN SERVICE,32.793183,-96.821641,1632,Market Center Blvd,,,Dallas,TX,Dallas County,75207,US
Building (BU) Commercial  New Construction,1707101031,7/13/2017,1290 S LAMAR ST,75215,45-U,"SCHAFFER CONSTRUCTION, LLC (972) 824-5583 P.O. Box 2431, Frisco, TX 75034",46000,2720,NEW CONSTRUCTION ,GEN MERCHANDISE OR FOOD STORE < 3500 SQ. FT.,32.768697,-96.796823,1290,S Lamar St,,,Dallas,TX,Dallas County,75215,US
Building (BU) Commercial  New Construction,1706261098,11/16/2017,2691 JOHN WEST RD,75228,39-W,"SCHAFFER CONSTRUCTION, LLC (972) 824-5583 P.O. Box 2431, Frisco, TX 75034",46000,2720,NEW CONSTRUCTION,GEN MERCHANDISE OR FOOD STORE < 3500 SQ. FT.,32.807503,-96.668655,2691,John West Rd,,,Dallas,TX,Dallas County,75228,US
Building (BU) Commercial  New Construction,1701175006,1/17/2017,5201 ROSS AVE,75206,36-W,"EMBREE CONSTRUCTION GROUP, INC. (512) 819-4700 4747 WILLAMS DRIVE, GEORGETOWN, TX 78633",1200000,2724,NEW COMMERCIAL CONSTRUCTION,RESTAURANT WITH DRIVE-IN SERVICE,32.809118,-96.773341,5201,Ross Ave,,,Dallas,TX,Dallas County,75206,US
Building (BU) Commercial  New Construction,1610271211,3/28/2017,111 W DAVIS ST Ste:190,75208,54-D,"ANDRES CONSTRUCTION SERVICES (214) 521-2118 3710 RAWLINS DR, SUITE 1510, DALLAS, TX 75219",250000,2780,NEW COMMERCIAL CONSTRUCTION,SHELL BUILDING,32.750202,-96.823454,111,W Davis St,Ste,190,Dallas,TX,Dallas County,75208,US
Building (BU) Commercial  New Construction,1705161135,9/12/2017,4820 W ILLINOIS AVE,75211,52-U,"HORIZON GENERAL CONTRACTOR (817) 244-7730 7315 W ELIZABETH LA, FT WORTH, TX 76116",350000,2843,,RESTAURANT WITHOUT DRIVE-IN SERVICE,32.719998,-96.905884,4820,W Illinois Ave,,,Dallas,TX,Dallas County,75211,US
Building (BU) Commercial  New Construction,1702221145,7/14/2017,7345 GASTON AVE,75214,37-X,"PARKWAY C&A LP (469) 322-3763 1000 CIVIC CIRCLE, LEWISVILLE, TX 75067",900000,2960,NEW RESTAURANT WITH DRIVE THRU,RESTAURANT WITH DRIVE-IN SERVICE,32.811735,-96.729408,7345,Gaston Ave,,,Dallas,TX,Dallas County,75214,US
Building (BU) Commercial  New Construction,1705101036,9/12/2017,1332 GUARD DR Ste:BU 4,75217,57-M,"ROYAL BENGAL CONSTRUCTION INC. (214) 682-5973 2019 KENNETH HOPPER DR, MESQUITE, TX 75149",30000,3000,NEW CONSTRUCTION,MINI-WAREHOUSE,32.738249,-96.711672,1332,Guard Dr,Ste,BU,Dallas,TX,Dallas County,75217,US
Building (BU) Commercial  New Construction,1612231036,2/9/2017,2355 OLIVE ST Ste:100,75201,45-F,"LAKESIDE COMMERICAL BUILDERS (972) 524-3100 1467 HWY 205, TERRELL, TX 75160",767720,3003,FIRST TIME FINISH OUT,RESTAURANT WITHOUT DRIVE-IN SERVICE,32.791223,-96.804191,2355,Olive St,Ste,100,Dallas,TX,Dallas County,75201,US
Building (BU) Commercial  New Construction,1706261097,11/16/2017,2691 JOHN WEST RD,75228,39-W,"SCHAFFER CONSTRUCTION, LLC (972) 824-5583 P.O. Box 2431, Frisco, TX 75034",1454000,3010,NEW CONSTRUCTION,GEN MERCHANDISE OR FOOD STORE < 3500 SQ. FT.,32.807503,-96.668655,2691,John West Rd,,,Dallas,TX,Dallas County,75228,US
Building (BU) Commercial  New Construction,1707031043,10/11/2017,4710 S BUCKNER BLVD,75227,48-Q,"TURNKEY CONSTRUCTION (214) 503-6555 10755 SANDHILL RD, DALLAS, TX 75238",800000,3010,NEW CONSTRUCTION,GEN MERCHANDISE OR FOOD STORE < 3500 SQ. FT.,32.778401,-96.682294,4710,S Buckner Blvd,,,Dallas,TX,Dallas County,75227,US
Building (BU) Commercial  New Construction,1705101022,9/1/2017,6343 LAKE JUNE RD Ste:120,75217,57-M,"ROYAL BENGAL CONSTRUCTION INC. (214) 682-5973 2019 KENNETH HOPPER DR, MESQUITE, TX 75149",175000,3023,NEW CONSTRUCTION,GEN MERCHANDISE OR FOOD STORE < 3500 SQ. FT.,32.734821,-96.711031,6343,Lake June Rd,Ste,120,Dallas,TX,Dallas County,75217,US
Building (BU) Commercial  New Construction,1612091038,3/22/2017,8165 WALNUT HILL LN,75231,"26-K,26-P","CORE CONSTRUCTION SERVICES OF TEXAS INC (972) 668-9340 10625 N COUNTY RD, FRISCO, TX 75034",228000,3028,NEW CONSTRUCTION OF 2 SHELL BLDG,SHELL BUILDING,32.881626,-96.767366,8165,Walnut Hill Ln,,,Dallas,TX,Dallas County,75231,US
Building (BU) Commercial  New Construction,1702151051,7/13/2017,1290 S LAMAR ST,75215,45-U,"SCHAFFER CONSTRUCTION, LLC (972) 824-5583 P.O. Box 2431, Frisco, TX 75034",2954000,3062,NEW CONSTRUCTION ,GEN MERCHANDISE OR FOOD STORE < 3500 SQ. FT.,32.768697,-96.796823,1290,S Lamar St,,,Dallas,TX,Dallas County,75215,US
Building (BU) Commercial  New Construction,1701111107,7/14/2017,9707 WEBB CHAPEL RD,75220,23-U,"THE DIMENSION GROUP (214) 343-9400 10755 SANDHILL ROAD, DALLAS, TX 75238",950000,3062,NEW COMMERCIAL CONSTRUCTION,GEN MERCHANDISE OR FOOD STORE < 3500 SQ. FT.,32.86589,-96.864365,9707,Webb Chapel Rd,,,Dallas,TX,Dallas County,75220,US
Building (BU) Commercial  New Construction,1610271214,3/28/2017,111 W DAVIS ST Ste:140,75208,54-D,"ANDRES CONSTRUCTION SERVICES (214) 521-2118 3710 RAWLINS DR, SUITE 1510, DALLAS, TX 75219",300000,3071,NEW COMMERCIAL CONSTRUCTION,SHELL BUILDING,32.750202,-96.823454,111,W Davis St,Ste,140,Dallas,TX,Dallas County,75208,US
Building (BU) Commercial  New Construction,1610271215,3/28/2017,111 W DAVIS ST Ste:120,75208,54-D,"ANDRES CONSTRUCTION SERVICES (214) 521-2118 3710 RAWLINS DR, SUITE 1510, DALLAS, TX 75219",150000,3100,NEW COMMERCIAL CONSTRUCTION,SHELL BUILDING,32.750202,-96.823454,111,W Davis St,Ste,120,Dallas,TX,Dallas County,75208,US
Building (BU) Commercial  New Construction,1609221107,1/5/2017,2935 W COMMERCE ST,75212,43-Q,"JACKA, MICHAEL (574) 271-2921 7121 GRAPE, GRANGER, IN 46530",326000,3133,NEW CONSTRUCTION,INDUSTRIAL (OUTSIDE),32.773588,-96.870959,2935,W Commerce St,,,Dallas,TX,Dallas County,75212,US
Building (BU) Commercial  New Construction,1602121162,2/28/2017,400 S HASKELL AVE,75226,46-K,"ANDERSON, BRENT (214) 952-1899 3815 COMMERCE ST, DALLAS, TX ",163615,3211,CONSTRUCT METAL BUILDING AND PARKING AREA FOR MATERIAL/STORAGE & ,WAREHOUSE,32.787285,-96.768709,400,S Haskell Ave,,,Dallas,TX,Dallas County,75226,US
Building (BU) Commercial  New Construction,1708291049,10/13/2017,7170 SKILLMAN ST Ste:100,75231,"27-N,27-P","ROYAL GEN CONTRACTORS INC (972) 621-0126 8415 STERLING ST, IRVING, TX ",485000,3268,COMMERCIAL/ RESTAURANT,RESTAURANT WITHOUT DRIVE-IN SERVICE,32.87663,-96.734024,7170,Skillman St,Ste,100,Dallas,TX,Dallas County,75231,US
Building (BU) Commercial  New Construction,1610241152,8/10/2017,1717 LEONARD ST,75201,"45-G,45-L","AUSTIN COMMERCIAL LP (214) 443-5700 3535 TRAVIS ST , DALLAS , TX 75203",1033623,3337,,HOTEL,32.789716,-96.796869,1717,Leonard St,,,Dallas,TX,Dallas County,75201,US
Building (BU) Commercial  New Construction,1706131047,7/26/2017,2020 CEDAR SPRINGS RD Ste:100,75201,45-F,"ADI CONSTRUCTION OF VIRGINIA LLC (703) 750-3911 5407 - A PORT ROYAL RD, SPRINGFIELD, VA 22151",336900,3369,FIRST TIME FINISH OUT,PERSONAL SERVICE USE,32.791223,-96.804191,2020,Cedar Springs Rd,Ste,100,Dallas,TX,Dallas County,75201,US
Building (BU) Commercial  New Construction,1611221099,3/13/2017,4880 MOUNTAIN CREEK PKWY,75211,"61A-R,61B-N","VICTRON STORES LP (469) 517-2000 105 YMCA DR., WAXAHACHIE, TX 75165",130000,3400,NEW CONSTRUCTION OF C-STORE/GAS STATION/RESTAURANTS,GEN MERCHANDISE OR FOOD STORE < 3500 SQ. FT.,32.672562,-96.968048,4880,Mountain Creek Pkwy,,,Dallas,TX,Dallas County,75236,US
Building (BU) Commercial  New Construction,1610271223,3/28/2017,101 W DAVIS ST Ste:115,75208,54-D,"ANDRES CONSTRUCTION SERVICES (214) 521-2118 3710 RAWLINS DR, SUITE 1510, DALLAS, TX 75219",300000,3470,NEW COMMERCIAL CONSTRUCTION,SHELL BUILDING,32.749265,-96.822882,101,W Davis St,Ste,115,Dallas,TX,Dallas County,75208,US
Building (BU) Commercial  New Construction,1610261149,10/10/2017,1034 S BUCKNER BLVD,75217,58-L,"MTY REMODELING & CONSTRUCTION (972) 876-9720 526 DAWSON, DUNCANVILLE, TX 75116",450000,3544,JNEW CONSTRUCTION OF RESTAURANT,RESTAURANT WITHOUT DRIVE-IN SERVICE,32.730045,-96.682222,1034,S Buckner Blvd,,,Dallas,TX,Dallas County,75217,US
Building (BU) Commercial  New Construction,1705101026,9/1/2017,6343 LAKE JUNE RD Ste:180,75217,57-M,"ROYAL BENGAL CONSTRUCTION INC. (214) 682-5973 2019 KENNETH HOPPER DR, MESQUITE, TX 75149",100000,3560,NEW CONSTRUCTION,SHELL BUILDING,32.734821,-96.711031,6343,Lake June Rd,Ste,180,Dallas,TX,Dallas County,75217,US
Building (BU) Commercial  New Construction,1609281083,4/3/2017,3010 N WESTMORELAND RD,75212,"43-K,43-L,43-P,43-Q","MSCS LTD (817) 538-8442 206 SHELBY RD, EVERMAN, TX 76140",50000,3560,,GEN MERCHANDISE OR FOOD STORE > 3500 SQ. FT.,32.781176,-96.871688,3010,N Westmoreland Rd,,,Dallas,TX,Dallas County,75212,US
Building (BU) Commercial  New Construction,1605201098,1/19/2017,4019 FRANKFORD RD,,4-F,"BONNER ASSOCIATES CONSTRUCTORS (214) 946-1155 737 S RL THORNTON FRWY, DALLAS, TX 75203",375000,3569,NEW CONSTRUCTION AUTO SERVICE CENTER ,AUTO SERVICE CENTER,0,0,,,,,,,,,
Building (BU) Commercial  New Construction,1610271224,3/28/2017,101 W DAVIS ST Ste:105,75208,54-D,"ANDRES CONSTRUCTION SERVICES (214) 521-2118 3710 RAWLINS DR, SUITE 1510, DALLAS, TX 75219",300000,3612,NEW COMMERCIAL CONSTRUCTION,SHELL BUILDING,32.749265,-96.822882,101,W Davis St,Ste,105,Dallas,TX,Dallas County,75208,US
Building (BU) Commercial  New Construction,1609151129,5/18/2017,7777 FORNEY RD,75227,"48-K,48-L,48-P,48-Q","PHILLIPS MAY CORPORATION (214) 631-3331 1125 LONGPOINT AVE, DALLAS, TX 75247",246056,3700,REMOVAL OF EXISTING GREENHOUSE AND THE INSTALLATION OF NEW GREENHOUSE.,PUBLIC OR PRIVATE SCHOOL,32.780808,-96.6903,7777,Forney Rd,,,Dallas,TX,Dallas County,75227,US
Building (BU) Commercial  New Construction,1611071040,3/13/2017,5770 ABRAMS RD,75214,36-D,"BENGE GENERAL CONTRACTING LLC (214) 789-9520 4540 Ross Ave, Suite 140, Dallas, TX 75204",500000,3721,NEW CONSTRUCTION OF SALON,PERSONAL SERVICE USE,32.855324,-96.750812,5770,Abrams Rd,,,Dallas,TX,Dallas County,75214,US
Building (BU) Commercial  New Construction,1702271237,8/10/2017,3111 OLYMPUS BLVD,,, () - ,500000,3729,SHELL BUILDING,SHELL BUILDING,31.434703,-99.281824,,,,,,TX,,,US
Building (BU) Commercial  New Construction,1612231009,5/1/2017,2503 W MOCKINGBIRD LN,75235,"34-N,34-P","MAPP CONSTRUCTION (214) 267-0700 3131 TURTLE CREEK BLVD, DALLAS, TX 75226",1400000,3735,NEW CONSTRUCTION OF RESTAURANT,GEN MERCHANDISE OR FOOD STORE < 3500 SQ. FT.,32.828621,-96.844636,2503,W Mockingbird Ln,,,Dallas,TX,Dallas County,75235,US
Building (BU) Commercial  New Construction,1710171068,12/15/2017,6131 CHURCHILL WAY,75230,15-T,"STRATEGIC CONSTRUCTION LTD (972) 578-8072 801 E PLANO PKWY , STE 207, PLANO , TX 75074",600000,3741,NEW CONSTRUCTION,"CHURCH, SYNAGOGUE, TEMPLE, MOSQUE",32.91735,-96.800685,6131,Churchill Way,,,Dallas,TX,Dallas County,75230,US
Building (BU) Commercial  New Construction,1609071088,1/3/2017,8070 FRANKFORD RD,,"6-F,6-G,6-K","WHITING-TURNER CONTRACTING CO (469) 429-0800 2301 W PLANO #104, PLANO, TX 75075",403493,3960,NEW COMMERCIAL CONSTRUCTION,RETIREMENT HOUSING,0,0,,,,,,,,,
Building (BU) Commercial  New Construction,1702271231,6/14/2017,7265 W CAMP WISDOM RD,75236,61B-T,"NOVEL BUILDERS, LLC (214) 884-8810 600 S SHERMAN ST #124, RICHARDSON, TX 75081",480000,4000,CONSTRUCT NEW PRE-ENGINEERED METAL BUILDING,OFFICE BUILDING,32.665867,-96.951275,7265,W Camp Wisdom Rd,,,Dallas,TX,Dallas County,75236,US
Building (BU) Commercial  New Construction,1611211009,3/20/2017,3121 DALLAS FT WORTH TPKE,75212,43-U,"CARLISLE BUILDERS (469) 446-9095 7979 INWOOD RD, SUITE 225, DALLAS, TX 75209",300000,4000,,SHELL BUILDING,32.781246,-96.878831,,,,,Dallas,TX,Dallas County,75212,US
Building (BU) Commercial  New Construction,1702241131,3/20/2017,3101 DALLAS FT WORTH TPKE,75212,43-U,"CARLISLE BUILDERS (469) 446-9095 7979 INWOOD RD, SUITE 225, DALLAS, TX 75209",300000,4000,,SHELL BUILDING,32.781246,-96.878831,,,,,Dallas,TX,Dallas County,75212,US
Building (BU) Commercial  New Construction,1704061140,5/24/2017,10814 ALDER CIR,75042,28-F,"NOVATEX CONTRACTING (972) 552-3553 10584 CR 2932, TERRELL , TX 75160",150000,4000,NEW CONSTRUCTION WAREHOUSE,OFFICE SHOWROOM/WAREHOUSE,32.898242,-96.692114,10830,Alder Cir,,,Garland,TX,Dallas County,75042,US
Building (BU) Commercial  New Construction,1705101027,9/1/2017,6343 LAKE JUNE RD,75217,57-M,"ROYAL BENGAL CONSTRUCTION INC. (214) 682-5973 2019 KENNETH HOPPER DR, MESQUITE, TX 75149",25000,4000,NEW CONSTRUCTION,Motor Vehicle Fueling Station,32.734821,-96.711031,6343,Lake June Rd,,,Dallas,TX,Dallas County,75217,US
Building (BU) Commercial  New Construction,1701181150,1/30/2017,7615 S CENTRAL EXPY Ste:BU4,75216,56-U,"ONEJAI BUILDER LLC (214) 683-8298 1126 E 8TH ST , DALLAS, TX 75203",225000,4031,NEW CONSTRUCTION OF HOTEL BUILDING 4,HOTEL,32.716155,-96.756562,7615,S Central Expy,Ste,BU4,Dallas,TX,Dallas County,75216,US
Building (BU) Commercial  New Construction,1609161084,2/9/2017,6010 WHISPERING CEDAR DR Ste:BU1,75236,"61B-H,61B-M,62-E,62-J","SPRING VALLEY CONSTRUCTION CO. (214) 340-9800 10950 Alder Circle, Dallas, TX 75238",450000,4032,NEW CONSTRUCTION,"PRIVATE RECREATION CENTER, CLUB OR AREA",32.68801,-96.927577,6010,Whispering Cedar Dr,Ste,BU1,Dallas,TX,Dallas County,75236,US
Building (BU) Commercial  New Construction,1610271213,3/28/2017,111 W DAVIS ST Ste:160,75208,54-D,"ANDRES CONSTRUCTION SERVICES (214) 521-2118 3710 RAWLINS DR, SUITE 1510, DALLAS, TX 75219",350000,4050,NEW COMMERCIAL CONSTRUCTION,SHELL BUILDING,32.750202,-96.823454,111,W Davis St,Ste,160,Dallas,TX,Dallas County,75208,US
Building (BU) Commercial  New Construction,1605111097,1/6/2017,4246 W LOVERS LN,75209,34-B,"BARROW BUILDERS GROUP (214) 755-7300 4303 W LOVERS, STE 200, DALLAS, TX 75209",700000,4062,NEW CONSTRUCTION OFFICE BUILDING ,OFFICE BUILDING,32.85097,-96.837766,4246,W Lovers Ln,,,Dallas,TX,Dallas County,75209,US
Building (BU) Commercial  New Construction,1512031052,6/15/2017,4601 W LOVERS LN,75209,34-C,"GP PARTNERS, LLC (214) 454-9348 4222 GLOSTER RD., P.O. Box 25569, DALLAS, TX 75225",487715,4241,NEW CONSTRUCTION,OFFICE BUILDING,32.851537,-96.831312,4601,W Lovers Ln,,,Dallas,TX,Dallas County,75209,US
Building (BU) Commercial  New Construction,1707131002,10/13/2017,2720 LIVE OAK ST,75204,"45-H,45-M", () - ,73000,4320,FUEL CANOPY,GEN MERCHANDISE OR FOOD STORE > 3500 SQ. FT.,32.788903,-96.788422,2720,Live Oak St,,,Dallas,TX,Dallas County,75204,US
Building (BU) Commercial  New Construction,1705311109,7/10/2017,10665 SANDEN DR Ste:100,75041,"28-E,28-F","KL CONTRACTORS () - 945 WINEPRESS RD, BURLESON, TX 76028",345000,4384,NEW CONSTRUCTION,OFFICE SHOWROOM/WAREHOUSE,32.893496,-96.696107,10665,Sanden Dr,Ste,100,Dallas,TX,Dallas County,75238,US
Building (BU) Commercial  New Construction,1703071029,8/31/2017,1445 TURTLE CREEK BLVD,75207,44-H,"ANDRES CONSTRUCTION SERVICES (214) 521-2118 3710 RAWLINS DR, SUITE 1510, DALLAS, TX 75219",3740000,4434,NEW CONSTRUCTION,HOTEL,32.796428,-96.822393,1445,Turtle Creek Blvd,,,Dallas,TX,Dallas County,75207,US
Building (BU) Commercial  New Construction,1612281058,1/30/2017,7615 S CENTRAL EXPY Ste:BU1,75216,56-U,"ONEJAI BUILDER LLC (214) 683-8298 1126 E 8TH ST , DALLAS, TX 75203",225000,4443,NEW CONSTRUCTION OF HOTEL BUILDING 1,HOTEL,32.716155,-96.756562,7615,S Central Expy,Ste,BU1,Dallas,TX,Dallas County,75216,US
Building (BU) Commercial  New Construction,1506191004,9/12/2017,250 N BISHOP AVE,75208,54-C,"REX CONSTRUCTION, LLC (214) 969-1091 101 N ZANG BLVD, STE 200, DALLAS, TX 75208",570900,4602,NEW CONSTRUCTION OF RETAIL SHELLS,SHELL BUILDING,32.747001,-96.82812,250,N Bishop Ave,,,Dallas,TX,Dallas County,75208,US
Building (BU) Commercial  New Construction,1703031013,12/1/2017,2337 W MOCKINGBIRD LN,75235,34-N,"M L GRAY PARTNERSHIP (214) 628-9425 1811 GREENVILLE AVE. #150, DALLAS, TX 75206",560000,4615,NEW CONSTRUCTION OF SHELL BLDG,SHELL BUILDING,32.82643,-96.846952,2337,W Mockingbird Ln,,,Dallas,TX,Dallas County,75235,US
Building (BU) Commercial  New Construction,1703271075,7/7/2017,3734 W CLARENDON DR,75211,53-J,"ALPHA CONSTRUCTION (214) 317-5190 4121 MANGROVE, CARROLLTON, TX 75007",320000,4680,NEW CONSTRUCTION,DRY CLEANING OR LAUNDRY STORE,32.73468,-96.882883,3734,W Clarendon Dr,,,Dallas,TX,Dallas County,75211,US
Building (BU) Commercial  New Construction,1705241132,9/15/2017,375 S PRAIRIE CREEK RD,75217,"58-V,58-Z,59-S,59-W","BALDWIN ASSOCIATES (214) 824-7949 3904 ELM STE B, DALLAS, TX 75226",1550000,4835,NEW CONSTRUCTION,"PUBLIC PARK, PLAYGROUND, OR GOLF COURSE",32.705592,-96.665682,,S Prairie Creek Rd,,,Dallas,TX,Dallas County,75217,US
Building (BU) Commercial  New Construction,1710171069,12/15/2017,6131 CHURCHILL WAY,75230,15-T,"STRATEGIC CONSTRUCTION LTD (972) 578-8072 801 E PLANO PKWY , STE 207, PLANO , TX 75074",100000,4875,NEW CONSTRUCTION,"CHURCH, SYNAGOGUE, TEMPLE, MOSQUE",32.91735,-96.800685,6131,Churchill Way,,,Dallas,TX,Dallas County,75230,US
Building (BU) Commercial  New Construction,1610061035,2/7/2017,3150 BIRMINGHAM AVE,75215,"46-T,46-U","RJ'S FENCING & CONSTRUCTION (469) 939-1912 2788 E OVERTON RD, DALLAS, TX 75216",230000,4905,NEW COMMERCIAL CONSTRUCTION,"PRIVATE RECREATION CENTER, CLUB OR AREA",32.770177,-96.76108,3150,Birmingham Ave,,,Dallas,TX,Dallas County,75215,US
Building (BU) Commercial  New Construction,1705041062,6/28/2017,10707 PRESTON RD,75230,25-F,"HIGHLAND BUILDERS (972) 501-0330 2342  FABENS RD, SUITE 100, DALLAS, TX 75229",750497,4975,NEW COMMERCIAL CONSTRUCTION,OFFICE BUILDING,32.892914,-96.805206,10707,Preston Rd,,,Dallas,TX,Dallas County,75230,US
Building (BU) Commercial  New Construction,1702271242,4/5/2017,2722 N FITZHUGH AVE,75206,"35-V,35-Z","JLB BUILDERS LLC (214) 395-1726 3890 W. Northwest Highway , Seventh Floor, Dallas, TX 75220",650000,4982,SHELL BUILDING,SHELL BUILDING,32.81475,-96.785761,2722,N Fitzhugh Ave,,,Dallas,TX,Dallas County,75204,US
Building (BU) Commercial  New Construction,1705241126,10/4/2017,14730 HILLCREST RD,75254,"15-H,16-E","BALDWIN ASSOCIATES (214) 824-7949 3904 ELM STE B, DALLAS, TX 75226",1525000,5002,NEW COMMERCIAL CONSTRUCTION,"PUBLIC PARK, PLAYGROUND, OR GOLF COURSE",32.948178,-96.785251,14730,Hillcrest Rd,,,Dallas,TX,Dallas County,75254,US
Building (BU) Commercial  New Construction,1709111026,11/28/2017,8300 ELAM RD,75217,58-U,"MARK TOLOCKO (972) 839-2925 PO BOX 190343, DALLAS, TX 75219",250000,5043,NEW SHELL BUILDING CONSTRUCTION,SHELL BUILDING,32.719308,-96.679077,8300,Elam Rd,,,Dallas,TX,Dallas County,75217,US
Building (BU) Commercial  New Construction,1612281128,3/21/2017,3130 W MOCKINGBIRD LN,75235,34-K,"23 TRITON LLC. (972) 474-4077 3415 CUSTER RD #102, PLANO, TX 75023",1500000,5082,NEW CONSTRUCTION OF RESTAURANT,RESTAURANT WITHOUT DRIVE-IN SERVICE,32.833049,-96.837723,3130,W Mockingbird Ln,,,Dallas,TX,Dallas County,75235,US
Building (BU) Commercial  New Construction,1701191022,7/19/2017,4710 WADSWORTH DR,75216,"66-B,66-C","GREER, LARRY (214) 789-1505 1432 INDIAN SPRINGS, CARROLLTON, TX 75007",150000,5130,NEW CONSTRUCTION,ADULT DAY CARE FACILITY,32.701606,-96.762364,4710,Wadsworth Dr,,,Dallas,TX,Dallas County,75216,US
Building (BU) Commercial  New Construction,1610241165,8/10/2017,1747 LEONARD ST,75201,"45-G,45-L","AUSTIN COMMERCIAL LP (214) 443-5700 3535 TRAVIS ST , DALLAS , TX 75203",1587324,5165,,SHELL BUILDING,32.789716,-96.796869,1747,Leonard St,,,Dallas,TX,Dallas County,75201,US
