permitnumber,worktype,permittypedescr,description,comments,applicant,declared_valuation,total_fees,issued_date,expiration_date,status,owner,occupancytype,sq_feet,property_id,parcel_id,Latitude,Longitude,Number,Street,Unit Type,Unit Number,City,State,County,Zip,Country
ERT549983,ERECT,Erect/New Construction,Erect,Demolish existing structure and erect a new 4-story residential building with 6 units and garage for 6 off street parking spots. (see A761462),18 PREBLE ST LLC,1300000,13321,1/12/2017 10:16, ,Closed,18 PREBLE STREET LLC,Multi,0,112535,700694000,42.32967,-71.05613,18,Preble St,,,South Boston,MA,Suffolk County,2127,US
ERT902280,ERECT,Erect/New Construction,Erect,Erect new 4-unit residential building on 6814;SF vacant land with propose 5 garage parking spaces.10/18/19 AMENDMENT DUE FOR FP INSTALL,19-21 Standard LLC,960000,26873,10/22/2019 10:22,4/22/2020 0:00,Open,19-21  STANDARD STREET  LLC,1-4FAM,4600,439210,1800088000,42.272395,-71.078325,17,Standard St,,,Mattapan,MA,Suffolk County,2126,US
ERT995663,ERECT,Erect/New Construction,Erect,Erect new single family residence,19-21 Standard Street LLC,300000,3080,9/26/2019 16:17,3/26/2020 0:00,Open,19-21  STANDARD STREET  LLC,1-2FAM,1300,437492,1800092000,42.272673,-71.078006,6,Menton St,,,Mattapan,MA,Suffolk County,2126,US
ERT995665,ERECT,Erect/New Construction,Erect,Erect new single family residence,19-21 Standard Street LLC,300000,3050,9/26/2019 16:19,3/26/2020 0:00,Open,19-21  STANDARD STREET  LLC,1-2FAM,1300,437493,1800087000,42.272492,-71.07793,7,Glenmore St,,,Mattapan,MA,Suffolk County,2126,US
ERT598370,ERECT,Erect/New Construction,Erect,Combine 4 existing parcels ... parcel #2012067000 (with 5 711 S.F.) and parcel #2012068000 (with 23 100 S.F.) and parcel #201206901 (with 1 250 S.F.) and parcel #2012093030 (with 19 S.F) into 1 lot of 30 080 S.F.; Erect a;new;Two ( 2 ) Family Dwelling.; This will be one of two ;Two ( 2 ) Family Dwellings located on the same Lot;;In conjunction with ERT598276,42-48 Woodley Avenue LLC,537500,5599,8/9/2017 11:20, ,Closed,42-48 WOODLEY AVENUE CONDOMINIUM TRUST,1-2FAM,4300,420544,2012068000,42.264669,-71.149743,48,Woodley Ave,,,West Roxbury,MA,Suffolk County,2132,US
ERT598276,ERECT,Erect/New Construction,Erect,Combine 4 existing parcels ... parcel #2012067000 (with 5 711 S.F.) and parcel #2012068000 (with 23 100 S.F.) and parcel #201206901 (with 1 250 S.F.) and parcel #2012093030 (with 19 S.F) into 1 lot of 30 080 S.F.; Erect a;new;Two ( 2 ) Family Dwelling.; This will be one of two ;Two ( 2 ) Family Dwellings located on the same Lot;;In conjunction;with ERT598370.,42-48 Woodley Avenuee LLC,537500,5499,8/9/2017 11:16, ,Closed,42-48 WOODLEY AVENUE CONDOMINIUM TRUST,1-2FAM,4300,420543,2012068000,42.264925,-71.14979,44,Woodley Ave,,,West Roxbury,MA,Suffolk County,2132,US
ERT601141,ERECT,Erect/New Construction,Erect,A.O Flats -; New Construction  78 Residential Apartments including 1 Commercial Space and 1 level of below-grade Parking with 42 Spaces.;;The Building is;a 5 story Type 3A Wood Structure over a 3 Hour Rated;Type 1A Concrete and Composite Steel Structure. ( previous;Application ERT399992 has been abandoned ); ;,A.O FLATS AT FOREST HILLS LLC,19790000,199925,10/11/2017 13:20,4/11/2018 0:00,Open,MASS BAY TRANSPORTATION AUTHORITY,VacLd,101758,353924,1905052010,42.297787,-71.115424,93-95,Hyde Park Ave,,,Jamaica Plain,MA,Suffolk County,2130,US
COO800266,NEWCON,Certificate of Occupancy,New construction,Single Family;with Parking for one Vehicle BeneathErt 316037 issued 1/9/15;,Aaron Daigneault,200445,495,2/16/2018 14:32, ,Closed,SCHETTINO JOHN A,1-2FAM,0,172684,101757000,42.387713,-71.006903,22,Breed St,,,East Boston,MA,Suffolk County,2128,US
COO752629,NEWCON,Certificate of Occupancy,New construction,Single Family DwellingERT316048 issued 1/9/2015,Aaron Daigneault,200445,335,9/5/2017 14:26, ,Closed,SCHETTINO JOHN A,1-2FAM,1600,172683,101757000,42.387757,-71.006851,24,Breed St,,,East Boston,MA,Suffolk County,2128,US
COO702039,NEWCON,Certificate of Occupancy,New construction,Single Family DwellingERT316020 issued 3/1/2017,Aaron M Daigneault,200445,35,6/5/2017 11:04, ,Closed,SCHETTINO JOHN A,1-2FAM,1600,172679,101757000,42.387662,-71.007009,20,Ford St,,,East Boston,MA,Suffolk County,2128,US
ERT316020,NEWCON,Erect/New Construction,New construction,Construct single family semi-detached dwelling at 20 Ford Street (lot to contain 2552 square feet of land) with parking for one vehicle to be accessed from the rear; (to be attached to 18 Ford Street) all as shown on plans included herewith.,Aaron M Daigneault,200445,2060,3/1/2017 11:22,9/1/2017 0:00,Closed,SCHETTINO JOHN A,1-2FAM,0,172679,101757000,42.387662,-71.007009,20,Ford St,,,East Boston,MA,Suffolk County,2128,US
COO1003096,ERECT,Certificate of Occupancy,Erect,Three (3) FamilyERT834672; issued: 10/5/18;;;;,Adam Burns,675000,1035,9/23/2019 10:50, ,Closed,BOSTON PINNACLE PROPERTIES  LLC,Comm,0,14039,703454000,42.32474,-71.05997,8,W Bellflower St,,,Dorchester,MA,Suffolk County,2125,US
ERT483519,ERECT,Erect/New Construction,Erect,SP # 12 3-11-2016 to 4-1-2016.Combine Parcel ID # 1400681040 with Parcel I.D. # 1400682010 to equal 8 921 S.F.;and construct;a new building;for Six Residential Units.;;,adam hostetter,950000,51550,4/13/2017 16:09, ,Open,,Multi,0,172897, ,42.307746,-71.078949,41,Oldfields Rd,,,Dorchester,MA,Suffolk County,2121,US
ERT698978,ERECT,Erect/New Construction,Erect,Erect a new two family building with four parking spaces.,Adam Hostetter,800000,8441,5/4/2018 9:10,11/4/2018 0:00,Open,502 EAST THIRD STREET CONDOMINIUM TRUST,1-2FAM,4000,134974,603311000,42.33654,-71.03976,502,E 3rd St,,,South Boston,MA,Suffolk County,2127,US
COO1021481,ERECT,Certificate of Occupancy,Erect,39 Residential Units and Parking Garage.ERT581827 Issued 8/30/17  ERT716028 Issued 8/31/17 &; A951524 Issued 7/11/19,Adam Parker,10906070,1657.7,11/12/2019 10:28, ,Closed,ES JWAY LLC,Other,9508,420580,1001632000,42.325271,-71.112493,221,S Huntington Ave,,,Jamaica Plain,MA,Suffolk County,2130,US
ERT675585,ERECT,Erect/New Construction,Erect,To erect a new 2 family residential building with garage parking on grade as per plans,Adler Bernadin,475000,9625,12/10/2018 12:29,6/10/2019 0:00,Open,8-10 LORING PLACE CONDOMINIUM TRUST,1-2FAM,3307,421354,1810237000,42.247623,-71.121628,10,Loring Pl,,,Hyde Park,MA,Suffolk County,2136,US
ERT672432,ERECT,Erect/New Construction,Erect,The plan includes demolition of existing two family dwelling along with free standing garage and to erect a three level 5 unit townhouse style construction.*AE FLOOD ZONE 10' EL (DEP File No. 006-1602)*Existing structures to be razed on a separate permit.,AGMILTON DESOUZA,1600000,16667,12/27/2018 13:29,6/27/2019 0:00,Closed,ROBERTO LOUIE TS,Multi,5500,421338,106905000,42.375097,-71.039217,,,,,East Boston,MA,Suffolk County,2128,US
ERT915785,ERECT,Erect/New Construction,Erect,New building construction of school 19 511 square feet and 3 stories high. FP and FA,Ahied R Zimo,9000000,93210,11/19/2019 13:56,5/19/2020 0:00,Open,413-419  BREMEN STREET  LLC,Other,0,437622,104196000,42.378264,-71.027812,375,Bremen St,,,East Boston,MA,Suffolk County,2128,US
FND664270,ERECT,Foundation Permit,Erect,Foundation Permit Only in conjunction with ERT664270 pending.; To; construction of a mixed-use building with planned phased occupancy. Building is comprised of a below grade parking garage and 3 high rise residential towers that are interconnected at the ground;floor level.;All associated cost are reflected on ERT664270 paid on 10/3/16. Seaport Square Block;M1 / M2 -;$87 000 000.00 foundation cost.;;;,ahmed nur,0,968,1/19/2017 12:07,7/19/2017 0:00,Open,BOSTON SEAPORT M1&2 LAND LLC,Comm,1012000,420769,602642000,42.350352,-71.043367,147,Seaport Blvd,,,Boston,MA,Suffolk County,2210,US
ERT766946,ERECT,Erect/New Construction,Erect,Erect 22 Level plus 3 below grade levels of Mixed use Development. Total height of the building is 250 feet above grade  3 levels of parking below grade  level 2 has restaurant  A3 residential Amenities.3rd floor to 22nd 116 res identical units ,ahmed nur,176213487,3560148,12/18/2018 10:16, ,Open,150 SEAPORT LLC,Mixed,21760,349861,602671120,42.350714,-71.042804,150,Seaport Blvd,,,Boston,MA,Suffolk County,2210,US
ERT802352,ERECT,Erect/New Construction,Erect,Erect a 5 story multi-family residential building under 9th edition of MSBC  PhaseII Building I of St Gabriel. This is type IIIA construction over a 1 story Podium. This construction consists of rental apartments  128 units  first floor lobby mail room  residential lounge  and in conjunction with building 2&;3 Erect784650 as well as the church and the Monastary ALT786977.,ahmed nur,30187000,305420,5/2/2018 15:43,11/2/2018 0:00,Open,STEWARD  ST  ELIZABETHS,Comm,105199,423688,2101833000,42.34719,-71.145142,161,Washington St,,,Brighton,MA,Suffolk County,2135,US
ERT784650,ERECT,Erect/New Construction,Erect,The project consists of construction of two five story high  new;398 Residential units  refer to as building two and three. Building two has maximum footprint of 28 200 sf and building three has 37 500 sf. The first floor consists of parking in building two and residential units in building three.and residential and amenity spaces on the second floor thru. 5th floors.In conjunction with ALT786977,ahmed nur,60882300,625495,6/12/2018 15:36, ,Open,STEWARD  ST  ELIZABETHS,Multi,65700,423157,2101833000,42.347731,-71.146606,181,Washington St,,,Brighton,MA,Suffolk County,2135,US
ERT826544,ERECT,Erect/New Construction,Erect,erect a 300 sf one story brick enclosure;for fire;pump*Plans indicate MEP and pump controller and pump location with hyd calcs,ahmed nur,210000,2388,6/13/2018 13:58,12/13/2018 0:00,Open,CARDONA ESNEDA,VacLd,300,143475,2101889000,42.34579,-71.14633,160,Washington St,,,Brighton,MA,Suffolk County,2135,US
FND931575,ERECT,Foundation Permit,Erect,Foundation only for;an erect building G with approximately 798 542 Sq. ft.  14 stories  248 ft. high with 4 levels of below grade parking for commercial labs  offices. Approximately 237 122 gross sq. ft of building G is located in Boston  approximately 561 420 sq. ft is located in Cambridge.,ahmed nur,0,130,3/19/2019 10:03,9/19/2019 0:00,Open,,Mixed,450895,437750, ,42.372712,-71.072158,155,Austin St,,,Charlestown,MA,Suffolk County,2129,US
ERT704584,ERECT,Erect/New Construction,Erect,The pipe-fitters union to demo an existing Building and Erect a 70'000 sf pipe fitters training office  a four story 65' tall Steel framed structure. The project also includes approximately 117 parking spaces. LPR;,ahmed nur,23211500,467450,12/13/2017 13:06,6/13/2018 0:00,Open,PIPEFITTERS ASSOC,Comm,73000,54140,703517000,42.32364,-71.06258,40,Enterprise St,,,Dorchester,MA,Suffolk County,2125,US
FND727522,ERECT,Foundation Permit,Erect,The pipe-fitters union to demo an existing Building and Erect a 70'000 sf pipe fitters training office  a four story 65' tall Steel framed structure. The project also includes approximately 117 parking spaces.,ahmed nur,21500000,271,11/9/2017 13:15,5/9/2018 0:00,Open,PIPEFITTERS ASSOC,Comm,73000,54140,703517000,42.32364,-71.06258,40,Enterprise St,,,Dorchester,MA,Suffolk County,2125,US
ERT654537,ERECT,Erect/New Construction,Erect,Northeastern University -; Erect a 21 story steel-framed;Building connected to a 16 story;steel-framed Building by way of a glass-enclosed structural steel bridge. This Columbus Avenue Student Apartment complex consists of;214 Apartment-style Dormitory Rooms for;Northeastern University students.; On the;Ground Level there will be Resident;Amenity spaces ( Leasing Office / Fitness Center / Bike Room / Package Rooms etc.;) and a Retail Store.; The Upper Floors;will be all Residential Use.;;;;;;;;;; LPR,ahmed nur,106000000,1068435,4/14/2017 8:07,10/14/2017 0:00,Open,NORTHEASTERN  UNIVERSITY,Comm,315000,420858,901401000,42.337422,-71.085608,744,Columbus Ave,,,Roxbury Crossing,MA,Suffolk County,2120,US
FND673501,ERECT,Foundation Permit,Erect,Foundation Only for Northeastern University Student Apartments;in;conjunction with Erect Permit ERT654537 pending.;;Cost of foundation paid with the full permit fee on the erect permit.; Foundation cost $7 615 000.00 ; LPR,ahmed nur,0,176280,1/23/2017 11:55,7/23/2017 0:00,Open,NORTHEASTERN  UNIVERSITY,Comm,315000,420858,901401000,42.337422,-71.085608,744,Columbus Ave,,,Roxbury Crossing,MA,Suffolk County,2120,US
COO711612,ERECT,Certificate of Occupancy,Erect,Two Family DwellingErt 578081;issued 6/30/16;,Akbar Olia,303000,2515,5/23/2017 8:22, ,Closed,NORTH HARVARD STREET II,VacLd,3428,419781,2201618000,42.358861,-71.127611,68,Hooker St,,,Allston,MA,Suffolk County,2134,US
ERT774924,ERECT,Erect/New Construction,Erect,Erect a new 3 story 3 Family Dwelling.; Installation of a new Fire Sprinkler system,Alan  Brennan,650000,6779,7/16/2019 9:28,1/16/2020 0:00,Closed,DANG TAO T,VacLd,897,423595,2100422000,42.354783,-71.124727,11,Sawyer Ter,,,Allston,MA,Suffolk County,2134,US
COO671060,ERECT,Certificate of Occupancy,Erect,4 Residential UnitsERT292962 Issued 10/27/15  A581064 Issued 5/24/16,ALAN PETERSON,700000,2935,1/9/2017 9:41, ,Closed,1-7 ATWOOD SQUARE,1-4FAM,0,351497,1103536000,42.307276,-71.115689,7-Jan,Atwood Sq,,,Jamaica Plain,MA,Suffolk County,2130,US
ERT631175,ERECT,Erect/New Construction,Erect,Erect two (2);- three family residential dwelling units with seven (7) off-street parking on a vacant lot. (The other three-family residential units plans filed under ERT631196 for;13 Ruthven St)*Clarification: This is one of two;three family dwellings on one lot. Other three family is known as 13 Ruthven Street,Albert Ogiste,300000,3421,12/22/2017 8:44, ,Open,11-13 RUTHVEN STREET CONDOMINIUM TRUST,VacLd,0,119968,1203025000,42.313973,-71.092977,11,Ruthven St,,,Dorchester,MA,Suffolk County,2121,US
ERT631196,ERECT,Erect/New Construction,Erect,Erect two (2);- three family residential dwelling units with seven (7) off-street parking on a vacant lot. (The other three-family residential units plans filed under ERT631175 for 11 Ruthven Street)*Clarification: This is one of two three family dwellings on the same lot. (Other address is known as 11 Ruthven Street),Albert Ogiste,300000,3484,12/22/2017 8:44, ,Open,11-13 RUTHVEN STREET CONDOMINIUM TRUST,VacLd,3500,420767,1203025000,42.313911,-71.092892,13,Ruthven St,,,Dorchester,MA,Suffolk County,2121,US
COO907721,ERECT,Certificate of Occupancy,Erect,6 Dwelling UnitsErt438446 - 1/25/16,Alex Abelha,1200000,7185,1/14/2019 15:16, ,Closed,HBLC BUSINESS TRUST,Multi,0,55190,104971000,42.367185,-71.034299,99,Everett St,,,East Boston,MA,Suffolk County,2128,US
COO907721,ERECT,Certificate of Occupancy,Erect,6 Dwelling UnitsErt438446 - 1/25/16,Alex Abelha,1200000,7185,1/14/2019 15:16, ,Closed,HBLC BUSINESS TRUST,Multi,0,55190,104972000,42.367185,-71.034299,99,Everett St,,,East Boston,MA,Suffolk County,2128,US
COO1002756,ERECT,Certificate of Occupancy,Erect,Two ( 2 ) Family DwellingERT688806 issued 6/19/17  A22353 issued 8/21/18 and;SF767039;issued 10/13/17,Alex Abelha,524000,1635,10/16/2019 9:17, ,Closed,63-65 MCBRIDE STREET CONDOMINIUM TRUST,1-2FAM,4500,421799,1103153000,42.305869,-71.112746,65,McBride St,,,Jamaica Plain,MA,Suffolk County,2130,US
ERT688806,ERECT,Erect/New Construction,Erect,Demolish existing House.; Construct a new  3 story  Two ( 2 ) Family Dwelling with Roof Decks and Rear Decks;as shown on;drawings.,Alex Abelha,489000,65904,6/19/2017 12:34,12/19/2017 0:00,Open,63-65 MCBRIDE STREET CONDOMINIUM TRUST,1-2FAM,4500,421799,1103153000,42.305869,-71.112746,65,McBride St,,,Jamaica Plain,MA,Suffolk County,2130,US
COO947827,ERECT,Certificate of Occupancy,Erect,Two Residential UnitsERT605361 July 14  2017,Alex Albetha,515000,2575,5/9/2019 9:04, ,Closed,89 JAMAICA STREET CONDOMINIUM TRUST,Other,3958,420596,1103467000,42.309661,-71.121097,,,,,Jamaica Plain,MA,Suffolk County,2130,US
ERT750736,ERECT,Erect/New Construction,Erect,Erect new 13 story five-sided Commercial building with ground floor Restaurant and/or Retail uses ;3 Levels of;Aboveground;Parking Garage - no underground parking for 150 vehicles  the 1300sf ft of retail or restaurant space will be located in up to four courtyard shipping container 'kiosks' intended to activate the urban plaza area.,alexander macleod,58161000,1187183,4/5/2018 8:32,10/5/2018 0:00,Open,ECONOMIC DEVELOPMENT AND,VacLd,200000,421017,602674000,42.344978,-71.037679,2,Dry Dock Ave,,,Boston,MA,Suffolk County,2210,US
ERT225854,NEWCON,Erect/New Construction,New construction,Build four attached townhouses on vacant land as per plans,Alexander Siopy,850000,9125,11/1/2019 9:39,5/1/2020 0:00,Open,POLYHRONOPOULOS NICHOLAS TS,1-4FAM,0,347460,1100411000,42.321922,-71.094092,26,Vale St,,,Roxbury,MA,Suffolk County,2119,US
ERT716028,ERECT,Erect/New Construction,Erect,Construction of a new steel and wood framed 5-story building with new foundation and partially below-grade parking.(see alt 716029 for existing building application on same lot). 39 residential units and parking  see also ERT581827 for relief granted,Alyson Therrien,10906070,111890,8/31/2017 10:32, ,Open,ES JWAY LLC,Other,43620,420580,1001632000,42.325271,-71.112493,221,S Huntington Ave,,,Jamaica Plain,MA,Suffolk County,2130,US
FND963401,ERECT,Foundation Permit,Erect,FOUNDATION ONLY;   inpatient clinical building on the West Campus. The foundations scope affiliated with the BIDMC NIB project will include pre-trenching theexisting site  installation of a slurry wall and load bearing elements (LBEs)  with supportingexcavation and backfill  and respective support of excavation.;,Amy Sowersby,0,100,6/25/2019 14:47,12/25/2019 0:00,Open,BI DEACONESS MEDICAL CENTER,Other,0,437772,401961000,42.337488,-71.109723,111,Francis St,,,Boston,MA,Suffolk County,2215,US
ERT681716,ERECT,Erect/New Construction,Erect,Demolish existing Structure.; Erect a;new;Two ( 2 );Family Dwelling;per plans.,Amy Wrenn,440000,4555,10/9/2019 11:07,4/9/2020 0:00,Open,DEWEY PATRICIA,1-2FAM,3099,108807,200666000,42.37886,-71.06435,30,Pearl St,,,Charlestown,MA,Suffolk County,2129,US
COO846987,ERECT,Certificate of Occupancy,Erect,Single Family Rowhouse Dwelling with Roof DeckERT549117 issued: 3/22/17 &; ALT549105 issued: 6/22/18,Amy Wrenn,300000,2395,6/29/2018 10:10, ,Closed,WRENN JOSEPH,1-2FAM,0,131830,200611000,42.3786,-71.06545,51,Sullivan St,,,Charlestown,MA,Suffolk County,2129,US
ERT549117,ERECT,Erect/New Construction,Erect,Erect a;new 3 story Single Family Rowhouse Dwelling with Roof Deck.;;Existing Lot subdivided into 3 Lots ( see subdivision ALT549105 ) to Erect a Single Family Rowhouse on each lot ( see ERT549120 and ERT549128 ).; Building will be fully sprinkled.;;,Amy Wrenn,300000,3273,3/22/2017 11:35,9/22/2017 0:00,Open,WRENN JOSEPH,1-2FAM,0,131830,200611000,42.3786,-71.06545,51,Sullivan St,,,Charlestown,MA,Suffolk County,2129,US
COO846991,ERECT,Certificate of Occupancy,Erect,Single Family Rowhouse Dwelling;with;Roof Deck ERT549120 issued: 3/22/17 &; ALT549105 issued: 6/22/16,Amy Wrenn,300000,2345,6/29/2018 10:16, ,Closed,WRENN JOSEPH,1-2FAM,0,419760,200611000,42.378679,-71.065464,53,Sullivan St,,,Charlestown,MA,Suffolk County,2129,US
ERT549120,ERECT,Erect/New Construction,Erect,Erect a;new 3 story Single Family Rowhouse Dwelling;with;Roof Deck as per plans. Lot subdivided into 3 lots (see subdivision alt549105) to erect a single family rowhouse on each lot (see ert549117 and ert549128).; Building will be fully sprinkled.;,Amy Wrenn,300000,3273,3/22/2017 11:37,9/22/2017 0:00,Open,WRENN JOSEPH,1-2FAM,0,419760,200611000,42.378679,-71.065464,53,Sullivan St,,,Charlestown,MA,Suffolk County,2129,US
COO855147,ERECT,Certificate of Occupancy,Erect,Single Family Rowhouse Dwelling with Roof DeckERT549128 issued: 3/22/17  ALT549105 issued: 6/22/18,Amy Wrenn,300000,2335,7/23/2018 9:51, ,Closed,WRENN JOSEPH,1-2FAM,0,419761,200611000,42.378697,-71.065397,55,Sullivan St,,,Charlestown,MA,Suffolk County,2129,US
ERT549128,ERECT,Erect/New Construction,Erect,Erect a;new 3 story Single Family Rowhouse Dwelling with Roof Deck on newly created 2 041 sq ft Lot.; Existing Lot subdivided into 3 separate Lots (see subdivision alt549105) to erect a Single family house on each lot (see ert549117 and ert549120).; Building will be fully sprinkled.; ;,Amy Wrenn,300000,3273,3/22/2017 11:38,9/22/2017 0:00,Open,WRENN JOSEPH,1-2FAM,0,419761,200611000,42.378697,-71.065397,55,Sullivan St,,,Charlestown,MA,Suffolk County,2129,US
ERT876731,ERECT,Erect/New Construction,Erect,Construction of 2-family structure. 2 side-by-side townhomes. Subdivide lot;parcel ID 2000899000 of 13 200 Sq Ft. into two lots  Lot 1 of 8 000 sq. ft; and Lot 2 of 5 200 Sq. ft. Two family to be erected on Lot 1 (8 000 sq. ft) Lot;2 to remain vacant for now.;,Andreas Hwang,538795,5485,3/27/2019 11:51,9/27/2019 0:00,Closed,ORANGE INVESTMENTS LLC,1-2FAM,3991,424458,2000899000,42.281203,-71.138921,134,Orange St,,,Roslindale,MA,Suffolk County,2131,US
ERT873495,ERECT,Erect/New Construction,Erect,Construction of new single family home.,Andreas Hwang,350190,3596,4/29/2019 13:46,10/29/2019 0:00,Open,ORANGE INVESTMENTS LLC,1-2FAM,2594,105352,2000899000,42.28108,-71.13901,136,Orange St,,,Roslindale,MA,Suffolk County,2131,US
ERT814436,ERECT,Erect/New Construction,Erect,Construction of three-unit residential structure. Each unit to consist of three (3) bedrooms  two bathrooms  a kitchen and living room area  and a front porch. Underlying lots to be combined;and parking to be provided via twenty-eight unit auxiliary parking lot (See. U49814415). Sprinkler System to be installed.; combine Parcels shown as 2000660000  2000661000  2000662000  2000663000 and 2000672000. ;,Andreas Hwang,400000,8806,12/5/2019 9:33,6/5/2020 0:00,Open,WASHINGTON 9 INVESTMENTS LLC,VacLd,5275,171278,2000660000,42.276442,-71.139501,4623,Washington St,,,Roslindale,MA,Suffolk County,2131,US
ERT814443,ERECT,Erect/New Construction,Erect,Construction of three-unit residential structure. Each unit to consist of three (3) bedrooms  two bathrooms  a kitchen and living room area  and a front porch. Underlying lots to be combined;and parking to be provided via twenty-eight unit auxiliary parking lot (See. U49814415). Sprinkler System to be installed.; combine Parcels shown as 2000660000  2000661000  2000662000  2000663000 and 2000672000.,Andreas Hwang,400000,8406,12/5/2019 9:33,6/5/2020 0:00,Open,WASHINGTON 9 INVESTMENTS LLC,VacLd,5275,423797,2000661000,42.276347,-71.139606,4625,Washington St,,,Roslindale,MA,Suffolk County,2131,US
ERT814444,ERECT,Erect/New Construction,Erect,Construction of three-unit residential structure. Each unit to consist of three (3) bedrooms  two bathrooms  a kitchen and living room area  and a front porch. Underlying lots to be combined;and parking to be provided via twenty-eight unit auxiliary parking lot (See. U49814415). Sprinkler System to be installed.; combine Parcels shown as 2000660000  2000661000  2000662000  2000663000 and 2000672000.,Andreas Hwang,400000,4303,12/5/2019 9:33,6/5/2020 0:00,Closed,WASHINGTON 9 INVESTMENTS LLC,VacLd,5275,423798,2000662000,42.276269,-71.139712,4627,Washington St,,,Roslindale,MA,Suffolk County,2131,US
ERT643427,ERECT,Erect/New Construction,Erect,Erect two-family residential dwelling.,andrew  chen,458500,4697,4/18/2018 11:07,10/18/2018 0:00,Open,CHEN ANDREW TS,1-2FAM,2790,420872,1100581000,42.325098,-71.095329,,,,,Roxbury,MA,Suffolk County,2119,US
COO802946,NEWCON,Certificate of Occupancy,New construction,Two Hundred (200) Residential Units &; Garage(per plans)ERT538674 issued: 12/29/15,Andrew Bosco,54692912,8865,4/5/2018 15:54, ,Closed,TRINITY BORDER STREET LLC,Multi,0,419352,105414000,42.373584,-71.041148,126,Border St,,,East Boston,MA,Suffolk County,2128,US
COO806878,NEWCON,Certificate of Occupancy,New construction,Two Hundred (200) Residential Units &; GarageTemporary Certificate for 200 Residential Units and Garage pending completion of Art. 37 process.ERT538674 issued: 12/29/15Temporary to expire 6/3/18,Andrew Bosco,0,740,3/5/2018 9:29, ,Closed,TRINITY BORDER STREET LLC,Multi,0,419352,105414000,42.373584,-71.041148,126,Border St,,,East Boston,MA,Suffolk County,2128,US
ERT892073,ERECT,Erect/New Construction,Erect,Home 2 South Bay -; Construct a new  5 story Hotel featuring 130 Guest Rooms  Guest Fitness Center  and all associated Public spaces;;;;;;;;;;;;;;;;;;;;;;;;;;;;;;;;;;;;; ;LPR,Andrew Cogliano,25500000,259078,1/24/2019 10:52, ,Open,SERT LOTS 4 & 18 LLC A MASS ,Comm,80700,421287,703441005,42.325846,-71.060556,15,Jan Karski Way,,,Dorchester,MA,Suffolk County,2125,US
ERT892073,ERECT,Erect/New Construction,Erect,Home 2 South Bay -; Construct a new  5 story Hotel featuring 130 Guest Rooms  Guest Fitness Center  and all associated Public spaces;;;;;;;;;;;;;;;;;;;;;;;;;;;;;;;;;;;;; ;LPR,Andrew Cogliano,25500000,259078,1/24/2019 10:52, ,Open,SOUTHEAST REALTY TRUST,Comm,80700,421287,703441001,42.325846,-71.060556,15,Jan Karski Way,,,Dorchester,MA,Suffolk County,2125,US
ERT712869,ERECT,Erect/New Construction,Erect,Raze existing building  combine lots and erect a mixed-use structure consisting of retail on the first floor  37 units on the above floors and parking for 30 vehicles. See ALT712862 for combining lots. Building to be razed on separate permit.;,Andrew Riggi,8244000,86248,10/7/2019 8:26, ,Open,TWO  EIGHTY SEVEN  MAVERICK LLC,Comm,12470,93038,105269000,42.367298,-71.032964,287-293,Maverick St,,,Boston,MA,Suffolk County,2128,US
COO763035,ERECT,Certificate of Occupancy,Erect,Two (2) Family Dwelling;ERT305518 issued: 12/12/13,Andy Duong,250000,145,10/20/2017 15:40, ,Closed,HOME RECONSTRUCTION LLC,1-2FAM,0,78824,1500695000,42.300381,-71.067424,10,Iowa St,,,Dorchester Center,MA,Suffolk County,2124,US
COO763042,ERECT,Certificate of Occupancy,Erect,Two (2) Family Dwelling ERT459129 issued: 6/1/15,Andy Duong,175000,125,10/19/2017 11:15, ,Closed,NGUYEN SINH,1-2FAM,0,140775,1600779000,42.298836,-71.064262,5,Vinson St,,,Dorchester Center,MA,Suffolk County,2124,US
COO910049,ERECT,Certificate of Occupancy,Erect,3 Residential UnitsERT305105 Issued 4/29/14,Andy Duong,325000,765,1/9/2019 10:58, ,Closed,HOME RECONSTRUCTION LLC,1-3FAM,0,351652,1400519000,42.311352,-71.078354,23-25,Normandy St,,,Boston,MA,Suffolk County,2121,US
COO910053,ERECT,Certificate of Occupancy,Erect,3 Residential Units.ERT305105 Issued 4/29/14,Andy Duong,325000,765,1/10/2019 10:05, ,Closed,HOME RECONSTRUCTION LLC,1-3FAM,0,352558,1400521000,42.311175,-71.078525,27,Normandy St,,,Dorchester,MA,Suffolk County,2121,US
COO763051,NEWCON,Certificate of Occupancy,New construction,Three (3) Family; DwellingERT429119 issued: 4/8/16,Andy Duong,450000,36,10/20/2017 15:41, ,Closed,FIRST SUFFOLK LLC MASS LLC,1-3FAM,0,123113,1202920000,42.316293,-71.080532,51,Savin St,,,Roxbury,MA,Suffolk County,2119,US
COO763060,NEWCON,Certificate of Occupancy,New construction,Three Family DwellingCOO for Three Family DwellingERT429130 issued 4/8/2016,Andy Duong,450000,35,10/20/2017 15:43, ,Closed,FIRST SUFFOLK LLC,1-3FAM,3750,123114,1202921000,42.316215,-71.080414,53,Savin St,,,Roxbury,MA,Suffolk County,2119,US
COO845124,ERECT,Certificate of Occupancy,Erect,Two (2) Family Dwelling ERT663077 issued: 10/2617,Andy Nguyen,215000,505,7/9/2019 11:25, ,Closed,HOME RECONSTRUCTION LLC,1-2FAM,2840,421172,1500099000,42.302506,-71.058465,21,Duncan St,,,Dorchester,MA,Suffolk County,2122,US
ERT663077,ERECT,Erect/New Construction,Erect,Erect new 2 family dwelling as plan,Andy Nguyen,215000,2260,10/26/2017 13:47,4/26/2018 0:00,Open,HOME RECONSTRUCTION LLC,1-2FAM,2840,421172,1500099000,42.302506,-71.058465,21,Duncan St,,,Dorchester,MA,Suffolk County,2122,US
ERT933734,ERECT,Erect/New Construction,Erect,Correct violation V436562. Erect a new detached 2-car Garage as per;plan.,Andy Nguyen,9750,177,5/1/2019 7:46,11/1/2019 0:00,Open,HOME RECONSTRUCTION LLC,Other,0,421171,1500099000,42.302506,-71.058465,21,Duncan St,,,Dorchester,MA,Suffolk County,2122,US
ERT904709,ERECT,Erect/New Construction,Erect,Erect as plan 3 family house. FP and FA*Licensed contact: ;Eileen BRITO-ROSA;CS111704 617-953-4356,Andy Tuan  Nguyen,250000,2809,10/30/2019 10:04,4/30/2020 0:00,Open,FIRST ELLINGTON LLC,1-3FAM,980,52854,1402506000,42.301837,-71.083783,35,Ellington St,,,Dorchester,MA,Suffolk County,2121,US
COO678624,NEWCON,Certificate of Occupancy,New construction,Single family home with garage underErt 371459 issued 9/22/15,angelo musto,200000,285,3/6/2017 8:52, ,Closed,ROMER TOBY N,1-2FAM,2000, ,2001536000,42.283662,-71.145204,140,Beech St,,,Roslindale,MA,Suffolk County,2131,US
ERT485088,ERECT,Erect/New Construction,Erect,erect 2 family dwelling as per plan,Angelo Scippa,350000,3574,6/20/2018 12:32,12/20/2018 0:00,Open,NUNEZ WILFREDO,1-2FAM,0,146651,1300916000,42.313584,-71.073978,48,Wayland St,,,Dorchester,MA,Suffolk County,2125,US
COO905807,ERECT,Certificate of Occupancy,Erect,Single Family Dwelling ERT701262 issued: 4/5/18 &; SF755103 issued: 9/8/17;;,Angelo Sellitto,325000,35,12/18/2018 8:44, ,Closed,DOWNING FLORENCE M,VacLd,32.64,421519,1805758000,42.274032,-71.124599,20,Littledale St,,,Roslindale,MA,Suffolk County,2131,US
ERT701262,ERECT,Erect/New Construction,Erect,"Combine two Subdivided; lots established on ERT579230/ALT579234 known as Lot 4 (1600sf )+ Lot 3 (10071sf)  into one new lot;""lot 3"";to contain 11 515 s.q.f.t. (per survey) and erect a new;single family dwelling for 20 Littledale Street; as per attached plans.;",Angelo Sellitto,325000,3342,4/5/2018 10:51,10/5/2018 0:00,Open,DOWNING FLORENCE M,VacLd,32.64,421519,1805758000,42.274032,-71.124599,20,Littledale St,,,Roslindale,MA,Suffolk County,2131,US
COO782597,ERECT,Certificate of Occupancy,Erect,Single Family DwellingERT579230 issued 12/29/2016,angelo sellitto,315000,35,12/12/2017 8:56, ,Closed,DOWNING FLORENCE M,VacLd,2250,94870,1805758000,42.274196,-71.12424,325,Metropolitan Ave,,,Roslindale,MA,Suffolk County,2131,US
COO934712,ERECT,Certificate of Occupancy,Erect,Single Family DwellingERT772387 issued 2/7/18;,Angelo Sellitto,306250,35,4/1/2019 9:03, ,Closed,SELLITTO  LLC,VacLd,2405,422846,2003438001,42.277493,-71.153995,37,Redgate Rd,,,West Roxbury,MA,Suffolk County,2132,US
ERT772387,ERECT,Erect/New Construction,Erect,COMBINE VACANT PARCEL # 2003438-001 (10 949SQ FT) WITH PARCEL # 2003438-000 (16 048SQ FT) INTO 1 LOT FOR A TOTAL OF 26 997 SQ FT... SUBDIVIDE THIS LOT INTO 3 NEW LOTS... THIS LOT A2 TO HAVE 6 080SQ FT. AND ERECT NEW CONSTRUCTION SINGLE FAMILY DWELLING AS PER ATTACHED PLANS.,Angelo Sellitto,306250,3171,2/7/2018 14:06,8/7/2018 0:00,Open,SELLITTO  LLC,VacLd,2405,422846,2003438001,42.277493,-71.153995,37,Redgate Rd,,,West Roxbury,MA,Suffolk County,2132,US
COO944688,ERECT,Certificate of Occupancy,Erect,SINGLE FAMILY DWELLING ERT772388 issued: 2/7/18,Angelo Sellitto,306250,35,5/1/2019 9:25, ,Closed,SELLITTO  LLC,VacLd,2417,422845,2003438001,42.277349,-71.154192,41,Redgate Rd,,,West Roxbury,MA,Suffolk County,2132,US
ERT772388,ERECT,Erect/New Construction,Erect,COMBINE VACANT PARCEL # 2003438-001 (10 949SQ FT) WITH PARCEL # 2003438-000 (16 048SQ FT)... INTO 1 LOT OF 26 997 SQ FT... SUBDIVIDE INTO 3 NEW LOTS  THIS LOT A1 TO HAVE 6 047SQ FT. AND ERECT NEW CONSTRUCTION SINGLE FAMILY DWELLING AS PER ATTACHED PLANS.,Angelo Sellitto,306250,3171,2/7/2018 14:05,8/7/2018 0:00,Closed,SELLITTO  LLC,VacLd,2417,422845,2003438001,42.277349,-71.154192,41,Redgate Rd,,,West Roxbury,MA,Suffolk County,2132,US
COO1013653,ERECT,Certificate of Occupancy,Erect,Two (2) Residential Units w/Parking GarageERT645728 issued 2/14/18,Anthony Bellante,633250,105,11/20/2019 9:08, ,Closed,1-5 LAMSON COURT CONDOMINIUM TRUST,1-2FAM,2698,420950,104991000,42.375273,-71.054461,1,1st Ave,,,Charlestown,MA,Suffolk County,2129,US
COO980175,ERECT,Certificate of Occupancy,Erect,Three (3);Family DwellingERT512598 - 4/5/18  A855764 - 7/19/19;;,ANTHONY BELLANTI,770000,1225,7/26/2019 14:35, ,Closed,46 GENEVA STREET CONDOMINIUM TRUST,1-3FAM,0,419162,104122000,42.36953,-71.032489,46,Geneva St,,,East Boston,MA,Suffolk County,2128,US
ERT512598,ERECT,Erect/New Construction,Erect,Erect a three-story  three-family residential building  which will include a roof deck  head house  and rear deck.,ANTHONY BELLANTI,700000,603,4/5/2018 10:39,10/5/2018 0:00,Open,46 GENEVA STREET CONDOMINIUM TRUST,1-3FAM,0,419162,104122000,42.36953,-71.032489,46,Geneva St,,,East Boston,MA,Suffolk County,2128,US
ERT859055,ERECT,Erect/New Construction,Erect,Erect new;Two-Family Dwelling. ZBA,Anthony Bellanti,385000,3975,8/29/2019 13:57, ,Open,79 JAMAICA STREET LLC,1-2FAM,2475,79319,1103462000,42.30518,-71.11751,79,Jamaica St,,,Jamaica Plain,MA,Suffolk County,2130,US
COO713498,ERECT,Certificate of Occupancy,Erect,Six Family DwellingCOO for Six Family DwellingERT318580 issued 3/29/2016,ANTHONY BELLANTI,1500000,225,6/12/2017 15:24, ,Closed,OAK HILL PARK RANDOLPH LLC MASS LLC,Mixed,0,144538,1100230000,42.322688,-71.090746,2747,Washington St,,,Roxbury,MA,Suffolk County,2119,US
COO980185,ERECT,Certificate of Occupancy,Erect,Three (3);Family Dwelling ERT808429 - 11/16/18,Anthony Bellanti,990000,35,7/30/2019 15:03, ,Closed,56 CEDAR STREET LLC,VacLd,0,26823,1100185000,42.32516,-71.091541,56,Cedar St,,,Roxbury,MA,Suffolk County,2119,US
ERT808429,ERECT,Erect/New Construction,Erect,Erect;Building for a Three Family dwelling on existing vacant lot - see plans filed,Anthony Bellanti,990000,10209,11/16/2018 15:46,5/16/2019 0:00,Open,56 CEDAR STREET LLC,VacLd,6270,26823,1100185000,42.32516,-71.091541,56,Cedar St,,,Roxbury,MA,Suffolk County,2119,US
ERT974770,ERECT,Erect/New Construction,Erect,Kenmore Square Commonwealth Building -; New Construction of an 8 story;Mixed-Use;Building.;On the Ground Floor will be 2 Retail / Commercial;Spaces.;;On Floors 2 thru 8 will be;Core / Shell Office Space.;; Under the Building will be a;2 Level;Parking Garage;for approximately 60 Vehicles.; On the top floor will be a Mechanical Penthouse.; FP and FA;,Anthony Coward,37768000,390227,10/22/2019 11:52,4/22/2020 0:00,Open,RREF II KENMORE LESSOR II LLC,Comm,160000,438133,503756000,42.34919,-71.09701,545,Commonwealth Ave,,,Boston,MA,Suffolk County,2215,US
COO1001334,ERECT,Certificate of Occupancy,Erect,Research &; DevelopmentCertificate;for the;Base Building Core/Shell;ERT599961 - 11/27/17;,ANTHONY COWARD,25000000,59455,9/17/2019 8:46, ,Closed,ECONOMIC DEVELOPMENT AND,VacLd,125000,341356,602674000,42.34581,-71.031809,6,Tide St,,,Boston,MA,Suffolk County,2210,US
COO943567,ERECT,Certificate of Occupancy,Erect,Research &; DevelopmentCertificate for Base Building Core/Shell floor;1-4 - OnlyERT599961 Issued 11/27/17*Temporary certificate for (60) days; 9/22/19 pending completion of permit*,ANTHONY COWARD,0,1100,7/22/2019 0:00, ,Closed,ECONOMIC DEVELOPMENT AND,VacLd,125000,341356,602674000,42.34581,-71.031809,6,Tide St,,,Boston,MA,Suffolk County,2210,US
ERT599961,ERECT,Erect/New Construction,Erect,New Construction of approximately 125 000 SF of a 4 story steel framed core shell research&;development building.,ANTHONY COWARD,25000000,253085,11/27/2017 9:33, ,Open,ECONOMIC DEVELOPMENT AND,VacLd,125000,341356,602674000,42.34581,-71.031809,6,Tide St,,,Boston,MA,Suffolk County,2210,US
COO767833,ERECT,Certificate of Occupancy,Erect,Two Residential UnitsERT456155 Issued October 13  2016,anthony delitizia,287500,35,11/20/2017 12:22, ,Closed,A C D DEVELOPMENT LLC,1-2FAM,0,355564,903634000,42.327803,-71.090721,36,Millmont St,,,Roxbury,MA,Suffolk County,2119,US
COO767824,ERECT,Certificate of Occupancy,Erect,(2) Family DwellingErt 456165 issued 10/13/16,anthony delitizia,287500,35,11/20/2017 11:38, ,Closed,A C D DEVELOPMENT LLC,1-2FAM,0,355566,903634000,42.327959,-71.090578,37,Lambert St,,,Roxbury,MA,Suffolk County,2119,US
COO767825,ERECT,Certificate of Occupancy,Erect,Two Residential UnitsERT456161 Issued October 13  2016;,anthony delitizia,287500,35,11/20/2017 12:15, ,Closed,A C D DEVELOPMENT LLC,1-2FAM,0,355565,903634000,42.327742,-71.09057,40,Millmont St,,,Roxbury,MA,Suffolk County,2119,US
COO767829,ERECT,Certificate of Occupancy,Erect,(2) Family DwellingErt 456167 issued 10/13/16,anthony delitizia,287500,35,11/20/2017 11:41, ,Closed,A C D DEVELOPMENT LLC,1-2FAM,0,355567,903634000,42.32789,-71.090442,41,Lambert St,,,Roxbury,MA,Suffolk County,2119,US
ERT835819,ERECT,Erect/New Construction,Erect,Erect a 4 story  Six ( 6 ) Unit Residential Dwelling with Parking Garage under Building.;;Lot Combined under ALT835818. FA/FP,Anthony DelVecchio,1402000,14326,7/9/2019 12:00,1/9/2020 0:00,Closed,TAYS REALTY LLC,VacLd,3700,424340,103399000,42.381867,-71.034573,115,Falcon St,,,East Boston,MA,Suffolk County,2128,US
COO805998,ERECT,Certificate of Occupancy,Erect,Two Family Dwelling;Ert 606353 issued 9/13/16,Anthony Diletizia,400000,35,3/20/2018 14:09, ,Closed,17-19 HAVERFORD STREET CONDOMINIUM TRUST,1-2FAM,2900,420602,1102046000,42.312257,-71.102584,19,Haverford St,,,Jamaica Plain,MA,Suffolk County,2130,US
COO853482,ERECT,Certificate of Occupancy,Erect,Single Family DwellingERT766108 - 1/9/18,Anthony Diletizia,275000,35,7/25/2018 9:47, ,Closed,MCCORMICK JERILYN M,VacLd,2600,140345,2003629004,42.29551,-71.13902,36,Vfw Pkwy,,,West Roxbury,MA,Suffolk County,2132,US
COO949403,ERECT,Certificate of Occupancy,Erect,Two (2) Family Dwelling ERT708732 issued 7/26/18,Anthony Diletizia,400000,35,5/14/2019 9:04, ,Closed,C A D BUILDERS LLC,VacLd,32000,355622,1100204000,42.325098,-71.095329,,,,,Roxbury,MA,Suffolk County,2119,US
ERT708732,ERECT,Erect/New Construction,Erect,"Combine parcel #11-00204-000 (8 305 s.q.f.t.) with the abutting parcel #11-00203-000 (17 164 s.q.f.t.) ... subdivide this combined lot of 25 469 s.q.f.t. into 2 new Lots.; This new ""Lot B"" to have 4 152 sq.ft. and erect a;new;Semi-attached Two ( 2 ) Family Dwelling as per attached plan.; Dwelling to be fully Sprinklered. (Please see ERT708734 - 20B-20C Hawthorne St).",Anthony Diletizia,400000,8641,7/26/2018 9:48,1/26/2019 0:00,Open,C A D BUILDERS LLC,VacLd,32000,355622,1100204000,42.325098,-71.095329,,,,,Roxbury,MA,Suffolk County,2119,US
COO949627,ERECT,Certificate of Occupancy,Erect,Two (2) Family DwellingERT708734 issued 7/26/18,Anthony Diletizia,400000,35,5/14/2019 9:06, ,Closed,C A D BUILDERS LLC,VacLd,3200,355623,1100204000,42.325098,-71.095329,,,,,Roxbury,MA,Suffolk County,2119,US
ERT708734,ERECT,Erect/New Construction,Erect,combine existing parcel # 11-00203-000 (17 164 s.q.f.t.) that has existing Town House dwellings... with vacant parcel # 11-00204-000 (8 305 s.q.f.t.). subdivide this combined lot of 25 469 s.q.f.t. into 2 new lots... this new Lot A;to have 21 317 sq.ft and erect a;new;Semi-attached Two ( 2 ) Family Dwelling (under article 50-44-13).; Dwelling to be fully Sprinklered;;as per attached plans.; This will be 1 of 2 Dwellings on the Same Lot. Please see ERT708732 - 20-20A Hawthorne St),Anthony Diletizia,400000,8641,7/26/2018 9:48,1/26/2019 0:00,Open,C A D BUILDERS LLC,VacLd,3200,355623,1100204000,42.325098,-71.095329,,,,,Roxbury,MA,Suffolk County,2119,US
COO908119,ERECT,Certificate of Occupancy,Erect,Single Family;DwellingErt 797154 issued 4/26/18,Anthony Diletizia,275000,35,12/20/2018 13:27, ,Closed,NARGASSANS TYSON ROBERT,1-2FAM,2630,423427,2002625000,42.274221,-71.146483,27,Partridge St,,,West Roxbury,MA,Suffolk County,2132,US
ERT923658,ERECT,Erect/New Construction,Erect,The Parcel H Office Building contains approximately 639 265 gsf of construction. The building is fifteen (15) stories of occupied floors  consisting of ten (10 levels) offices  five (5 levels) parking and one (1) story of mechanical penthouse.95 percent of this building is in Cambridge,Anthony Galluccio,155561395,1566943,5/31/2019 12:15,11/30/2019 0:00,Open,,Comm,0,437752, ,42.374688,-71.066807,145,Austin St,,,Charlestown,MA,Suffolk County,2129,US
FND932606,ERECT,Foundation Permit,Erect,Foundation only for The Parcel H Office Building containing 10 levels of;office space  5 levels or parking and a 1 story mechanical penthouse.; 95 percent of this building is in Cambridge.;,Anthony Galluccio,0,151,3/21/2019 17:05,9/21/2019 0:00,Open,,Comm,0,437752, ,42.374688,-71.066807,145,Austin St,,,Charlestown,MA,Suffolk County,2129,US
COO1021432,ERECT,Certificate of Occupancy,Erect,(5) Residential UnitsErt658839 issued 12/4/18  A 1015875 issued 11/8/19,Anthony Monahan,1378000,175,11/18/2019 9:42, ,Closed,55-57 BYRON ST LLC,1-2FAM,9189,24599,100712000,42.38454,-71.01953,55,Byron St,,,East Boston,MA,Suffolk County,2128,US
COO1021432,ERECT,Certificate of Occupancy,Erect,(5) Residential UnitsErt658839 issued 12/4/18  A 1015875 issued 11/8/19,Anthony Monahan,1378000,175,11/18/2019 9:42, ,Closed,55-57 BYRON STREET CONDOMINIUM TRUST,1-2FAM,9189,24599,100713000,42.38454,-71.01953,55,Byron St,,,East Boston,MA,Suffolk County,2128,US
ERT658839,ERECT,Erect/New Construction,Erect,remove two existing single family homes  construct a 5 condominium building as per plans.,Anthony Monahan,1378000,14548,12/4/2018 14:31, ,Open,55-57 BYRON ST LLC,1-2FAM,9189,24599,100712000,42.38454,-71.01953,55,Byron St,,,East Boston,MA,Suffolk County,2128,US
ERT658839,ERECT,Erect/New Construction,Erect,remove two existing single family homes  construct a 5 condominium building as per plans.,Anthony Monahan,1378000,14548,12/4/2018 14:31, ,Open,55-57 BYRON STREET CONDOMINIUM TRUST,1-2FAM,9189,24599,100713000,42.38454,-71.01953,55,Byron St,,,East Boston,MA,Suffolk County,2128,US
COO700156,ERECT,Certificate of Occupancy,Erect,Four (4) Retail/Office Units on the first story  and;Twelve (12) Residential Units;;;ERT78826 issued: 8/30/11 &; A176767,Anthony Ross,2000000,2685,6/21/2017 13:22, ,Closed,BELGRADE CROSSING LLC,Mixed,18000,13659,2001401000,42.286233,-71.145838,337-345,Belgrade Ave,,,Roslindale,MA,Suffolk County,2131,US
A176767,NEWCON,Amendment to a Long Form,New construction,Submitting MEP Plans and all Engineering Affidavits as supplemental amendment to Architectural and Fire Protection plans already on file,Anthony Ross,0,86,3/23/2017 15:59,9/23/2017 0:00,Open,BELGRADE CROSSING LLC,Mixed,18000,13659,2001401000,42.286233,-71.145838,337-345,Belgrade Ave,,,Roslindale,MA,Suffolk County,2131,US
ERT452069,ERECT,Erect/New Construction,Erect,Erect three story building containing 4 parking space garage and office/retail space on ground story and four 2-bedroom apartments on the second and third stories.ZBA;Approved 6.16.17;,Anthony Ross,650000,13000,7/18/2018 14:12, ,Open,CASSIDY MICHAEL A,Mixed,0,345285,1903412000,42.292233,-71.121657,4004-4006,Washington St,,,Roslindale,MA,Suffolk County,2131,US
COO706319,ERECT,Certificate of Occupancy,Erect,Single Family Dwelling Ert 411049 issued 5/21/15,Anthony Ross,300000,235,5/17/2017 14:07, ,Closed,BOWENKAMP-JONES KATHRYN,1-2FAM,0,147208,2006471000,42.2915,-71.15783,604,Weld St,,,West Roxbury,MA,Suffolk County,2132,US
COO830169,ERECT,Certificate of Occupancy,Erect,Three (3) Family DwellingERT655030 issued: 7/27/17,Anthony Ruscito,500000,35,5/16/2018 8:06, ,Closed,51 IFFLEY ROAD CONDOMINIUM TRUST,VacLd,3517,421128,1102385000,42.311976,-71.098723,51,Iffley Rd,,,Jamaica Plain,MA,Suffolk County,2130,US
ERT655030,ERECT,Erect/New Construction,Erect,;Erect a 3 family dwelling sprinkler and fA,Anthony Ruscito,500000,5324,7/27/2017 14:36,1/27/2018 0:00,Open,51 IFFLEY ROAD CONDOMINIUM TRUST,VacLd,3517,421128,1102385000,42.311976,-71.098723,51,Iffley Rd,,,Jamaica Plain,MA,Suffolk County,2130,US
ERT695370,ERECT,Erect/New Construction,Erect,Raze existing wood Structure.; Erect a new 4 story  9 Unit Residential;Building.; There will be an at-grade Parking Garage built under;Building.; Building will be fully Sprinklered;LPR,Anthony Ruscito,2000000,22715,11/5/2018 14:28,5/5/2019 0:00,Open,CORVO DEVELOPMENT 2015 LLC,Comm,23563,400039,2000043000,42.285071,-71.129828,4281,Washington St,,,Roslindale,MA,Suffolk County,2131,US
COO743082,ERECT,Certificate of Occupancy,Erect,Two Family DwellingCertificate for Two Family DwellingERT622908 issued 11/14/2016,Anthony Ruscito,450000,35,8/28/2017 8:54, ,Closed,DENAPOLI FRANCIS W ETAL,VacLd,3500,420703,2000486000,42.281785,-71.136904,182,Roslindale Ave,,,Roslindale,MA,Suffolk County,2131,US
COO955282,ERECT,Certificate of Occupancy,Erect,2 Family ResidentialErt826413 - 8/22/18;,Anthony Ruscito%,500000,35,5/31/2019 8:27, ,Closed,1824-1826 RIVER STREET CONDOMINIUM TRUST,1-2FAM,0,424275,1812501000,42.243222,-71.139436,1826,River St,,,Hyde Park,MA,Suffolk County,2136,US
ERT826413,ERECT,Erect/New Construction,Erect,Raze existing structures and erect a new 2 family dwelling,Anthony Ruscito%,500000,5101,8/22/2018 11:58,2/22/2019 0:00,Open,1824-1826 RIVER STREET CONDOMINIUM TRUST,1-2FAM,4100,424275,1812501000,42.243222,-71.139436,1826,River St,,,Hyde Park,MA,Suffolk County,2136,US
COO1013656,ERECT,Certificate of Occupancy,Erect,Three (3);Residential;with Parking;Garage ERT645705 - 2/14/18;,Anthony S Bellanti,633250,145,11/19/2019 10:15, ,Closed,JP LAMSON COURT REALTY TRUST,1-3FAM,0,420951,104992000,42.36644,-71.03296,5,Lamson Ct,,,East Boston,MA,Suffolk County,2128,US
COO955262,ERECT,Certificate of Occupancy,Erect,Three FamilyErt451418 -6/23/16,Anthony S Bellanti,350000,2335,6/6/2019 9:06, ,Closed,DIPRIMA CHARLES,1-3FAM,0,355475,102309000,42.391104,-71.002633,80,Faywood Ave,,,East Boston,MA,Suffolk County,2128,US
ERT891382,ERECT,Erect/New Construction,Erect,Erect a 6 story  Building core &; shell for 107 Residential Units w/ Amenity Fitness Center  Clubhouse  Lounges &; Lobby.; On the Ground Floor will be Resident amenity and Commercial workshare spaces and related Amenity open space &; site improvements.; There will also be a below-Grade;Parking Garage for 80 Residents.;; PDA;;;;;;;;,Anthony V Pacelli,43508822,446854,6/26/2019 8:08,12/26/2019 0:00,Open,DIV SUMNER STREET LLC,Mixed,125678,132523,105403000,42.369117,-71.040861,111,Sumner St,,,East Boston,MA,Suffolk County,2128,US
COO874003,ERECT,Certificate of Occupancy,Erect,(24) Residential units  (1) Restaurant ;with (33) Underground Parking SpacesCertificate for (24) Residential units  Core/Shell For (1 Restaurant)  (33) Underground Parking SpacesErt 311095 issued 2/23/16,ANTHONY VIRGILIO,7000000,5705,8/31/2018 9:53, ,Closed,150 WEST BROADWAY CONDOMINIUM TRUST,Mixed,49700,171457,600301000,42.34069,-71.053443,150,W Broadway,,,South Boston,MA,Suffolk County,2127,US
COO885325,ERECT,Certificate of Occupancy,Erect,Single Family;DwellingErt674526 issued 10/4/17  A774086 issued 9/26/18,ANTHONY WILLIS,245000,375,10/5/2018 12:16, ,Closed,WILLIS ANTHONY D,1-2FAM,0,421345,1807870000,42.269553,-71.117484,74,Bradlee St,,,Hyde Park,MA,Suffolk County,2136,US
COO805214,ERECT,Certificate of Occupancy,Erect,(8) Unit;Residential;Ert 640813 issued 11/21/16  A73457 issued 9/21/17,Antonio Antenor,3500000,325,2/28/2018 16:07, ,Closed,CITY OF BOSTON,Multi,11216,420845,102280000,42.39327,-71.00942,230,Waldemar Ave,,,East Boston,MA,Suffolk County,2128,US
COO805949,ERECT,Certificate of Occupancy,Erect,(8) Unit;Residential;Temporary Certificate valid for 90 days; 5/28/2018 pending completion of permit.ERT640813 issued 11/21/16  A73457 issued 9/21/17,Antonio Antenor,3500000,525,2/28/2018 15:38, ,Closed,CITY OF BOSTON,Multi,11216,420845,102280000,42.39327,-71.00942,230,Waldemar Ave,,,East Boston,MA,Suffolk County,2128,US
COO805233,ERECT,Certificate of Occupancy,Erect,Eight (8) Residential Units ERT640991 issued: 11/21/16  A734581 issued: 9/21/17 &; SF678089 issued: 2/27/17,Antonio Antenor,3500000,325,2/28/2018 16:03, ,Closed,CITY OF BOSTON,Multi,11212,420846,102280000,42.39325,-71.010278,248,Waldemar Ave,,,East Boston,MA,Suffolk County,2128,US
COO805940,ERECT,Certificate of Occupancy,Erect,Eight (8) Residential Units Temporary Certificate valid for 90 days; 5/28/18 pending completion of permit.ERT640991 issued: 11/21/16  SF678089 issued: 2/27/17 &; A734581 issued: 9/21/17,Antonio Antenor,3500000,525,2/28/2018 15:34, ,Closed,CITY OF BOSTON,Multi,11212,420846,102280000,42.39325,-71.010278,248,Waldemar Ave,,,East Boston,MA,Suffolk County,2128,US
COO848777,ERECT,Certificate of Occupancy,Erect,(88);Multi Family Residential UnitsErt 640811 issued 11/21/16;,Antonio Anterior,7000000,2475,7/13/2018 13:03, ,Closed,CITY OF BOSTON,Other,90000,420843,102280000,42.393124,-71.008466,212,Waldemar Ave,,,East Boston,MA,Suffolk County,2128,US
COO824885,ERECT,Certificate of Occupancy,Erect,(88);Multi Family Residential UnitsErt 640811 issued 11/21/16*Temporary certificate -expires- 8/1/18-pending;Completion of permit*,Antonio Anterior,7040000,300,5/1/2018 9:39, ,Closed,CITY OF BOSTON,Other,90000,420843,102280000,42.393124,-71.008466,212,Waldemar Ave,,,East Boston,MA,Suffolk County,2128,US
COO696465,NEWCON,Certificate of Occupancy,New construction,Research Labs  Offices &; Lecture HallERT461452 issued: 6/9/15;;;;;,Antonio E Fagundes,94020283,5680,5/25/2017 0:00, ,Closed,BOSTON UNIVERSITY TRST OF,Mixed,0,355549,2100350000,42.349061,-71.101517,610,Commonwealth Ave,,,Boston,MA,Suffolk County,2215,US
COO685252,NEWCON,Certificate of Occupancy,New construction,School (Boston University - CILSE Building)Temporary Certificate for;the BU/CILSE Bldg.;;The;temporary certificate will permit cleaning &; installation of furniture.; (3/31/17)Adding the 9th  5th &; 4th;floors only for;minor staffing.;;TCO valid for 60 days; 6/7/2017 pending completion of permit.;ERT461452 issued: 6/9/15;;;;;,Antonio E Fagundes,94020283,1430,4/7/2017 0:00, ,Closed,BOSTON UNIVERSITY TRST OF,Mixed,0,355549,2100350000,42.349061,-71.101517,610,Commonwealth Ave,,,Boston,MA,Suffolk County,2215,US
ERT712380,ERECT,Erect/New Construction,Erect,See alt713059 for subdivision.; Erect a new 3 story  Two (2) Family Dwelling on new 8354 sq ft. lot . Proposed Project is part of the DND Neighborhood Housing Initiative Program,Antonio Ferrara,280000,2946,1/26/2018 11:51, ,Open,CFHM PROPERTIES LLC,1-2FAM,2200,422161,1402835000,42.28937,-71.079434,17,Callender St,,,Dorchester Center,MA,Suffolk County,2124,US
ERT712370,ERECT,Erect/New Construction,Erect,see alt 713072 for combine and subdivision of 2 lots. Erect a new Two;( 2 ) Family Dwelling on new 5 923 sq ft. Lot.; Proposed Project is part of the DND Neighborhood Housing Initiative Program,Antonio Ferrara,280000,2943,3/28/2018 15:09, ,Open,CFHM PROPERTIES LLC,1-2FAM,2200,437466,1402948000,42.28885,-71.079621,18,Tucker St,,,Dorchester Center,MA,Suffolk County,2124,US
COO791388,ERECT,Certificate of Occupancy,Erect,Two ( 2 );Family DwellingErt629984 -;issued2/22/17,Antonio Ferrara,300000,35,1/11/2018 14:07, ,Closed,GRAND CAROLINA J,1-2FAM,2100,73913,1403453000,42.283069,-71.086998,18,Hildreth St,,,Dorchester Center,MA,Suffolk County,2124,US
ERT629984,ERECT,Erect/New Construction,Erect,Construction of a new;Two ( 2 );Family Dwelling on;existing 4 614 sq ft Lot.; Project;is part of the Neighborhood Homes Initiative;Program.,Antonio Ferrara,300000,3122,2/22/2017 12:50,8/22/2017 0:00,Open,GRAND CAROLINA J,1-2FAM,2100,73913,1403453000,42.283069,-71.086998,18,Hildreth St,,,Dorchester Center,MA,Suffolk County,2124,US
COO1014659,ERECT,Certificate of Occupancy,Erect,Two (2) Family DwellingERT712383 issued: 1/26/18  ALT713059 issued: 939814 issued: 4/9/19 &; A987169 issued: 10/1/19;,Antonio Ferrara,280000,1025,12/24/2019 11:03, ,Closed,CFHM PROPERTIES LLC,1-2FAM,2200,422162,1402836001,42.289314,-71.079687,25,Callender St,,,Dorchester Center,MA,Suffolk County,2124,US
ERT712383,ERECT,Erect/New Construction,Erect,See alt713059 for subdivision .Erect a 3 story  Two (2) Family Dwelling on new 6975 sq ft. lot . Proposed Project is part of the DND Neighborhood Housing Initiative Program,Antonio Ferrara,280000,2946,1/26/2018 11:52, ,Open,CFHM PROPERTIES LLC,1-2FAM,2200,422162,1402836001,42.289314,-71.079687,25,Callender St,,,Dorchester Center,MA,Suffolk County,2124,US
COO791387,ERECT,Certificate of Occupancy,Erect,Two ( 2 );Family Dwelling Ert 629993 issued 2/22/17,Antonio Ferrara,300000,35,1/24/2018 15:00, ,Closed,HAWKINS GELINDA N,1-2FAM,2100,73915,1403452000,42.282928,-71.086946,22,Hildreth St,,,Dorchester Center,MA,Suffolk County,2124,US
ERT629993,ERECT,Erect/New Construction,Erect,Construction of a new;Two ( 2 );Family Dwelling on;existing 4 669sq ft Lot.; Project;is part of the Neighborhood Homes Initiative;Program.,Antonio Ferrara,300000,3122,2/22/2017 12:51,8/22/2017 0:00,Open,HAWKINS GELINDA N,1-2FAM,2100,73915,1403452000,42.282928,-71.086946,22,Hildreth St,,,Dorchester Center,MA,Suffolk County,2124,US
ERT712385,ERECT,Erect/New Construction,Erect,see alt 713059 for subdivision .; Erect a 3 story  Two (2) Family Dwelling on new 6191 sq ft. lot . Proposed Project is part of the DND Neighborhood Housing Initiative Program,Antonio Ferrara,280000,2946,1/26/2018 11:53,7/26/2018 0:00,Open,CFHM PROPERTIES LLC,1-2FAM,2200,422163,1402838000,42.289249,-71.079904,29,Callender St,,,Dorchester Center,MA,Suffolk County,2124,US
COO875005,ERECT,Certificate of Occupancy,Erect,Single Family Dwelling with a Two Car Attached GarageErt 702323;- 2/28/18  SF783224;-;12/15/17  A816574;- 5/23/18,Antonio Ferrara,275000,35,9/24/2018 12:10, ,Closed,SHAUNA A.Z. BENNETT FAMILY TRUST,1-2FAM,2150,422098,1812898000,42.240263,-71.139791,13,W Milton Pl,,,Hyde Park,MA,Suffolk County,2136,US
ERT702323,ERECT,Erect/New Construction,Erect,Erect new two and a half story single family dwelling with a two car attached garage.,Antonio Ferrara,260000,2650,2/28/2018 14:44,8/28/2018 0:00,Closed,SHAUNA A.Z. BENNETT FAMILY TRUST,1-2FAM,2150,422098,1812898000,42.240263,-71.139791,13,W Milton Pl,,,Hyde Park,MA,Suffolk County,2136,US
COO744456,ERECT,Certificate of Occupancy,Erect,Single Family Dwelling.ERT532881 issued: 3/3/17,Antonio Ferrara,250000,35,8/18/2017 10:56, ,Closed,BUBAR BRIDGET,1-2FAM,0,419649,1809578000,42.232817,-71.13198,63,Clifford St,,,Hyde Park,MA,Suffolk County,2136,US
ERT532881,ERECT,Erect/New Construction,Erect,Erect new 2 and 1/2 story single family dwelling.,Antonio Ferrara,250000,2604,3/3/2017 8:33,9/3/2017 0:00,Closed,BUBAR BRIDGET,1-2FAM,0,419649,1809578000,42.232817,-71.13198,63,Clifford St,,,Hyde Park,MA,Suffolk County,2136,US
ERT937219,ERECT,Erect/New Construction,Erect,Erect a new 3 story  Single Family Dwelling with a 1 Car Garage under.,Antonio Ferrara,325000,3357,7/30/2019 11:02,1/30/2020 0:00,Open,74 TOWER STREET LLC,1-2FAM,2093,437776,1103684000,42.298431,-71.110639,74,Tower St,,,Jamaica Plain,MA,Suffolk County,2130,US
COO676841,ERECT,Certificate of Occupancy,Erect,Two Family DwellingCOO for Two Family DwellingERT504780 issued 5/2/2016,Antonio Ferrara,385000,35,2/27/2017 8:19, ,Closed,HUB DEVELOPMENT LLC,1-2FAM,3400,419285,1806073000,42.274444,-71.134077,44,Winton St,,,Roslindale,MA,Suffolk County,2131,US
COO929567,ERECT,Certificate of Occupancy,Erect,(4) Family DwellingErt 679753 issued 2/28/18  SF761494;issued 10/3/17;,Antonio Ferrara,850000,435,3/15/2019 12:29, ,Closed,RESIDENCES AT POPLAR HILL CONDOMINIUM TRUST,1-4FAM,8000,421477,1804626000,42.282328,-71.127991,167,Poplar St,,,Roslindale,MA,Suffolk County,2131,US
ERT679753,ERECT,Erect/New Construction,Erect,Erect new two and half story four family dwelling,Antonio Ferrara,850000,8971,2/28/2018 14:39,8/28/2018 0:00,Open,RESIDENCES AT POPLAR HILL CONDOMINIUM TRUST,1-4FAM,8000,421477,1804626000,42.282328,-71.127991,167,Poplar St,,,Roslindale,MA,Suffolk County,2131,US
COO694568,ERECT,Certificate of Occupancy,Erect,Two Family DwellingERT534432 issued: 2/29/16,Antonio Ferrara,240000,35,4/6/2017 12:02, ,Closed,MEDINA-WEEKES GLYNIS,1-2FAM,2520,93332,1200979000,42.325098,-71.095329,,,,,Roxbury,MA,Suffolk County,2119,US
COO727205,ERECT,Certificate of Occupancy,Erect,Single Residential DwellingERT633999 Issued December 28  2016.,Antonio Ferrara,305000,435,7/6/2017 14:55, ,Closed,HUB DEVELOPMENT LLC,1-2FAM,2600,420786,2004238012,42.290617,-71.145974,12,Pleasant Valley Cir,,,West Roxbury,MA,Suffolk County,2132,US
COO685657,ERECT,Certificate of Occupancy,Erect,Single Family ALT556585 issued: 4/13/16 &; ERT556590 issued: 5/13/16;;,Antonio Ferrara,265000,35,3/8/2017 8:44, ,Closed,HARRINGTON WESLEY SCOTT,1-2FAM,0,355904,2009856080,42.271149,-71.165762,58,Belle Ave,,,West Roxbury,MA,Suffolk County,2132,US
ERT476672,ERECT,Erect/New Construction,Erect,to erect a single family dwelling containing 4 bedrooms and 2.5 baths,Antonio Ferrara,250000,11668,7/9/2019 13:45,1/9/2020 0:00,Closed,LENNON LORETTA A,1-2FAM,0,7801,2009450000,42.27331,-71.16499,91,Baker St,,,West Roxbury,MA,Suffolk County,2132,US
ERT657914,ERECT,Erect/New Construction,Erect,Erect new 4 story 17 unit Residential apartment building,Antonio Ferrara,2750000,28191,2/6/2019 9:08,8/6/2019 0:00,Open,5205 WASHINGTON STREET LLC,Comm,21800,145662,2011564010,42.261311,-71.157534,5205,Washington St,,,West Roxbury,MA,Suffolk County,2132,US
COO781084,ERECT,Certificate of Occupancy,Erect,Three (3) Family DwellingERT627415 issued: 9/27/17,ANTONIO RUSCITO,500000,35,12/1/2017 10:23, ,Closed,28 IFFLEY ROAD CONDOMINIUM,1-2FAM,3480,420704,1101529000,42.312678,-71.099698,28,Iffley Rd,,,Jamaica Plain,MA,Suffolk County,2130,US
ERT999689,ERECT,Erect/New Construction,Erect,Combine 6 existing parcels into 1 lot and subdivide into 4 lots : Lot A 6822 sf  Lot B 6046 sf  Lot C 6505 sf  and;Lot D to have 6358 sf. This Lot A will consist of 6822 sf.; Erect a 2 story Single Family Dwelling ;See ALT 999576,ANTONIO RUSCITO,350000,3731,10/28/2019 12:39,4/28/2020 0:00,Open,CONDON ROBERT,1-2FAM,2583,438992,2009932000,42.268102,-71.163752,22,Northdale Rd,,,West Roxbury,MA,Suffolk County,2132,US
ERT999690,ERECT,Erect/New Construction,Erect,COMBINE 6 EXISTING PARCELS INTO 1 LOT AND SUBDIVIDE INTO 4 LOTS :;LOT A 6822 Sf  LOT B 6046 Sf  LOT C 6505 Sf  and;LOT D to have 6358 Sf. This LOT C to consist of;6505 Sf.; Erect a 2 story Single;Family Dwelling.;;;;;;;;;; SEE ALT 999576,ANTONIO RUSCITO,350000,3631,11/7/2019 15:04,5/7/2020 0:00,Open,CONDON JAMES J,1-2FAM,2484,438991,2009929000,42.268272,-71.164107,30,Northdale Rd,,,West Roxbury,MA,Suffolk County,2132,US
ERT999690,ERECT,Erect/New Construction,Erect,COMBINE 6 EXISTING PARCELS INTO 1 LOT AND SUBDIVIDE INTO 4 LOTS :;LOT A 6822 Sf  LOT B 6046 Sf  LOT C 6505 Sf  and;LOT D to have 6358 Sf. This LOT C to consist of;6505 Sf.; Erect a 2 story Single;Family Dwelling.;;;;;;;;;; SEE ALT 999576,ANTONIO RUSCITO,350000,3631,11/7/2019 15:04,5/7/2020 0:00,Open,CONDON ROBERT,1-2FAM,2484,438991,2009930000,42.268272,-71.164107,30,Northdale Rd,,,West Roxbury,MA,Suffolk County,2132,US
COO974542,ERECT,Certificate of Occupancy,Erect,Single Family with GarageERT656012 - 1/8/18,Armando Petruzziello,345000,1425,7/23/2019 15:05, ,Closed,NUNEZ DIEGO,1-2FAM,0,420857,1902236000,42.313695,-71.125523,26,Billings Ln,,,Jamaica Plain,MA,Suffolk County,2130,US
ERT656012,ERECT,Erect/New Construction,Erect,Construct a single family dwelling with attached two car garage (11/14 sent to BOA for stamp to replace missing file ky),Armando Petruzziello,345000,3581,1/8/2018 15:49,7/8/2018 0:00,Open,NUNEZ DIEGO,1-2FAM,3000,420857,1902236000,42.313695,-71.125523,26,Billings Ln,,,Jamaica Plain,MA,Suffolk County,2130,US
ERT570214,ERECT,Erect/New Construction,Erect,demolish existing dwelling on separate permit ;erect a new;6 unit residential building. Structural and fire protection to submitted upon ZBA approval. Lots combined at 2 elm street and 4 elm street  new address to be known as 2-4 Elm Street (See alt570212 to combine lots).Note: Please  make sure applicant picks up the combining lots permit as well.,Arthur Choo,1400000,14381,1/12/2018 11:23,7/12/2018 0:00,Closed,2-4 ELM STREET CONDOMINIUM TRUST,Multi,0,53194,1600098000,42.29991,-71.05426,2,Elm St,,,Dorchester,MA,Suffolk County,2122,US
ERT477726,ERECT,Erect/New Construction,Erect,Erect a new;5 unit residential building as per plans. Framing and fire protection plans to be submitted upon ZBA approval. Raze existing single family house and,Arthur Choo,2000000,20360,3/9/2017 16:54, ,Open,891 EAST FIRST LLC,Multi,0,58433,603737000,42.33811,-71.02766,891,E 1st St,,,South Boston,MA,Suffolk County,2127,US
COO945529,ERECT,Certificate of Occupancy,Erect,Single Family ResidenceERT690730 issued 11/16/17,Arthur Massaro,800000,1115,5/7/2019 9:07, ,Closed,SOLEY STREET FAMILY TRUST,1-2FAM,2798,128372,203280000,42.37411,-71.06184,6,Soley St,,,Charlestown,MA,Suffolk County,2129,US
ERT690730,ERECT,Erect/New Construction,Erect,Construction of a single family residence(Sprinkler to be installed ),Arthur Massaro,800000,8360,11/16/2017 13:35,5/16/2018 0:00,Closed,SOLEY STREET FAMILY TRUST,1-2FAM,2798,128372,203280000,42.37411,-71.06184,6,Soley St,,,Charlestown,MA,Suffolk County,2129,US
COO915361,ERECT,Certificate of Occupancy,Erect,Single Family DwellingERT479998 issued: 10/4/16,Athancisia Fotopoulos,350000,35,1/18/2019 13:39, ,Closed,KOUTOUNIDIS  ALEXANDROS,1-2FAM,0,355533,2009856190,42.269259,-71.166215,75,Northdale Rd,,,West Roxbury,MA,Suffolk County,2132,US
COO776856,ERECT,Certificate of Occupancy,Erect,Four Family DwellingCOO for Four Family DwellingERT65857 issued 6/3/2013,Athena Boukouvalas,450000,2045,11/21/2017 15:13, ,Closed,DUNKLE ROBERT X ETAL,1-3FAM,3780,343202,601558000,42.339911,-71.049383,297-303,D St,,,Boston,MA,Suffolk County,2127,US
COO949216,ERECT,Certificate of Occupancy,Erect,11 Residential Units  one Commercial Space &; Parking.Certificate For: 11 Residential Units  1 Core &; Shell (Commercial Space)  &; ParkingErt570220 - 10/26/17,Ballas Steven,2300000,1217.5,5/10/2019 8:33, ,Closed,TGJP LLC,Mixed,3300,351782,1103143000,42.3058,-71.11443,5,McBride St,,,Jamaica Plain,MA,Suffolk County,2130,US
COO949216,ERECT,Certificate of Occupancy,Erect,11 Residential Units  one Commercial Space &; Parking.Certificate For: 11 Residential Units  1 Core &; Shell (Commercial Space)  &; ParkingErt570220 - 10/26/17,Ballas Steven,2300000,1217.5,5/10/2019 8:33, ,Closed,TGJP LLC,Mixed,3300,351782,1103144000,42.3058,-71.11443,5,McBride St,,,Jamaica Plain,MA,Suffolk County,2130,US
ERT1028757,ERECT,Erect/New Construction,Erect,Erect new garage at 18R School Street behind existing building at 18 School Street,BARBARA MCCLINTON,11945,170,12/18/2019 11:32,6/18/2020 0:00,Open,MCCLINTON BARBARA,Other,0,123921,1700278000,42.29642,-71.07387,18,School St,,,Dorchester Center,MA,Suffolk County,2124,US
ERT646280,ERECT,Erect/New Construction,Erect,Erect new 2200 sq ft one family dwelling.(Existing building on lot to be razed under a;permit SF644800);;,Barry Noone,260000,2671,3/9/2017 11:17,9/9/2017 0:00,Closed,DO LAM K,1-2FAM,2200,54891,1600211000,42.30067,-71.05063,16,Everdean St,,,Dorchester,MA,Suffolk County,2122,US
COO836616,ERECT,Certificate of Occupancy,Erect,Single Family Dwelling Ert654986 - 1/5/17  A824861 - 5/21/18;;,belayneh abebe,254500,225,6/5/2018 8:49, ,Closed,ALLS CASSANDRA M,1-2FAM,0,420731,1203208000,42.315132,-71.090698,100,Waumbeck St,,,Dorchester,MA,Suffolk County,2121,US
ERT654986,ERECT,Erect/New Construction,Erect,Combine 3 existing Lots into one Lot and subdivide into 4 Lots.; Erect; a Semi-attached Single Family Dwelling on newly created 2 686 sq ft Lot.; Plans filed under ERT648363 ( 98 Waumbeck St ); Part of the New Homes Initiative ( NHI ) Program.;,belayneh abebe,204500,4300,1/5/2017 12:11, ,Closed,ALLS CASSANDRA M,1-2FAM,0,420731,1203208000,42.315132,-71.090698,100,Waumbeck St,,,Dorchester,MA,Suffolk County,2121,US
COO895709,ERECT,Certificate of Occupancy,Erect,Single Family DwellingERT648264; issued: 1/5/17,belayneh abebe,409000,35,11/7/2018 8:47, ,Closed,VAN DYKE CHEVANESE HELEANA,1-2FAM,1572,420728,1203288020,42.315707,-71.09144,109,Waumbeck St,,,Dorchester,MA,Suffolk County,2121,US
ERT648264,ERECT,Erect/New Construction,Erect,Erect a new Single Family Dwelling on existing 4 802 sq ft;Lot.; Part of the New;Homes;Initiative ( NHI ) Program; ;;;,belayneh abebe,409000,4256,1/5/2017 12:24,7/5/2017 0:00,Open,VAN DYKE CHEVANESE HELEANA,1-2FAM,1572,420728,1203288020,42.315707,-71.09144,109,Waumbeck St,,,Dorchester,MA,Suffolk County,2121,US
COO895715,ERECT,Certificate of Occupancy,Erect,Single Family Dwelling;ERT648272 issued: 1/5/17,belayneh abebe,409000,35,11/7/2018 8:44, ,Closed,ARIAS CINTHIA E,1-2FAM,1572,420729,1203289000,42.315773,-71.091607,113,Waumbeck St,,,Dorchester,MA,Suffolk County,2121,US
ERT648272,ERECT,Erect/New Construction,Erect,Erect a new Single Family Dwelling;on existing 5 223 sq ft Lot.; Part of the New;Homes;Initiative ( NHI ) Program,belayneh abebe,409000,4256,1/5/2017 12:25,7/5/2017 0:00,Open,ARIAS CINTHIA E,1-2FAM,1572,420729,1203289000,42.315773,-71.091607,113,Waumbeck St,,,Dorchester,MA,Suffolk County,2121,US
COO875940,ERECT,Certificate of Occupancy,Erect,Single Family DwellingERT648248;- 1/5/18,belayneh abebe,409000,35,9/11/2018 8:58, ,Closed,BOSTON REDEVELOPMNT AUTH,1-2FAM,1572,420734,1203180000,42.314555,-71.09079,126,Howland St,,,Dorchester,MA,Suffolk County,2121,US
ERT648248,ERECT,Erect/New Construction,Erect,Erect a new Single Family Dwelling on newly subdivided lot of 4 229 sq ft.;Subdivide existing one lot into 4 lots with one building one each lot; ERT648254(184 Harold St)and ERT648311(186 Harold St)and ERT654898(188 Harold St) Part of the New;Homes;Initiative ( NHI ) Program.,belayneh abebe,409000,4450,1/5/2017 12:21,7/5/2017 0:00,Closed,BOSTON REDEVELOPMNT AUTH,1-2FAM,1572,420734,1203180000,42.314555,-71.09079,126,Howland St,,,Dorchester,MA,Suffolk County,2121,US
COO849538,ERECT,Certificate of Occupancy,Erect,Two (2);Family Dwelling ERT648285 issued: 1/5/17,belayneh abebe,409000,355,7/10/2018 10:31, ,Closed,THE BOSTON REDEVELOPMENT,1-2FAM,2618,420732,1203231000,42.315278,-71.091005,173,Harold St,,,Dorchester,MA,Suffolk County,2121,US
ERT648285,ERECT,Erect/New Construction,Erect,Erect a new Two Family Dwelling on;6 371 sq ft Lot.; Part of the New;Homes;Initiative ( NHI ) Program;- Combine two lots into one lot.,belayneh abebe,409000,4350,1/5/2017 12:28,7/5/2017 0:00,Closed,THE BOSTON REDEVELOPMENT,1-2FAM,2618,420732,1203231000,42.315278,-71.091005,173,Harold St,,,Dorchester,MA,Suffolk County,2121,US
COO849542,ERECT,Certificate of Occupancy,Erect,Two;(2);Family Dwelling ERT648279 issued: 1/5/17,belayneh abebe,409000,35,7/10/2018 10:29, ,Closed,GOMES SONIA F,1-2FAM,2792,420733,1203207010,42.314957,-71.090763,176,Harold St,,,Dorchester,MA,Suffolk County,2121,US
ERT648279,ERECT,Erect/New Construction,Erect,Erect a new Two Family Dwelling on 4 448 sq ft Lot.;;Part of the New;Homes;Initiative ( NHI ) Program - combine two lots into one lot.,belayneh abebe,409000,4353,1/5/2017 12:27,7/5/2017 0:00,Closed,GOMES SONIA F,1-2FAM,2792,420733,1203207010,42.314957,-71.090763,176,Harold St,,,Dorchester,MA,Suffolk County,2121,US
ERT648254,ERECT,Erect/New Construction,Erect,Erect a new Single Family Dwelling on 4 053 sq ft lot.;Also ERT648311(186 Harold St) and ERT654898(188 Harold St and ERT648248(126 Howland St);Part of the New;Homes;Initiative ( NHI ) Program. Subdivide existing 1 lot into 4 lots one building per lot.,belayneh abebe,409000,4353,1/5/2017 12:22,7/5/2017 0:00,Closed,BOSTON REDEVELOPMNT AUTH,1-2FAM,1572,420735,1203180000,42.31465,-71.091044,184,Harold St,,,Dorchester,MA,Suffolk County,2121,US
COO884467,ERECT,Certificate of Occupancy,Erect,Single Family Dwelling ERT648311 issued: 1/5/17,belayneh abebe,204500,185,10/2/2018 8:51, ,Closed,BOSTON REDEVELOPMNT AUTH,1-2FAM,2416,420736,1203180000,42.314534,-71.091111,186,Harold St,,,Dorchester,MA,Suffolk County,2121,US
ERT648311,ERECT,Erect/New Construction,Erect,Erect a Semi-attached Single Family Dwelling on newly subdivided Lot of 2 991 sq ft.; See ERT654898(188 Harold St); Part of the New Homes Initiative Program. Subdivide existing 1 lot into 4 lots.,belayneh abebe,204500,2313,1/5/2017 12:31,7/5/2017 0:00,Open,BOSTON REDEVELOPMNT AUTH,1-2FAM,2416,420736,1203180000,42.314534,-71.091111,186,Harold St,,,Dorchester,MA,Suffolk County,2121,US
COO884459,ERECT,Certificate of Occupancy,Erect,Single Family Dwelling ERT654898 issued: 1/5/17,belayneh abebe,204500,185,10/2/2018 8:53, ,Closed,BOSTON REDEVELOPMNT AUTH,1-2FAM,2416,420737,1203180000,42.314485,-71.091127,188,Harold St,,,Dorchester,MA,Suffolk County,2121,US
ERT654898,ERECT,Erect/New Construction,Erect,Erect a Semi-attached Single Family Dwelling on newly subdivided 9 229 sq ft Lot.;; Plans filed with;ERT648311 ( 186 Harold St ); Part of the New Homes Initiative Program;;,belayneh abebe,204500,4366,1/5/2017 12:36,7/5/2017 0:00,Open,BOSTON REDEVELOPMNT AUTH,1-2FAM,2416,420737,1203180000,42.314485,-71.091127,188,Harold St,,,Dorchester,MA,Suffolk County,2121,US
COO887487,ERECT,Certificate of Occupancy,Erect,Single Family Dwelling Ert648343 - 1/5/17,belayneh abebe,204500,35,10/10/2018 8:47, ,Closed,BOSTON REDEVELOPMENT AUTH,1-2FAM,0,420730,1203284010,42.315383,-71.090253,91,Waumbeck St,,,Dorchester,MA,Suffolk County,2121,US
ERT648343,ERECT,Erect/New Construction,Erect,Erect; a Semi-attached Single Family Dwelling on newly subdivided 3 251 sq ft Lot.; See ERT654954 ( 93 Waumbeck St ); Part of the New Homes Initiative ( NHI ) Program,belayneh abebe,204500,2316,1/5/2017 12:08,7/5/2017 0:00,Closed,BOSTON REDEVELOPMENT AUTH,1-2FAM,2386,420730,1203284010,42.315383,-71.090253,91,Waumbeck St,,,Dorchester,MA,Suffolk County,2121,US
COO887465,ERECT,Certificate of Occupancy,Erect,Single Family Dwelling Ert656954 - 1/5/17;,belayneh abebe,204500,35,10/10/2018 9:37, ,Closed,BOSTON REDEVELOPMENT AUTH,1-2FAM,0,172388,1203284010,42.315394,-71.090315,93,Waumbeck St,,,Dorchester,MA,Suffolk County,2121,US
ERT654954,ERECT,Erect/New Construction,Erect,Erect; a Semi-attached Single Family Dwelling on newly subdivided 3 189 sq ft Lot.; Plans filed under;ERT648343 ( 91 Waumbeck St ); Part of the New Homes Initiative ( NHI ) Program,belayneh abebe,204500,4366,1/5/2017 12:38,7/5/2017 0:00,Closed,BOSTON REDEVELOPMENT AUTH,1-2FAM,2386,172388,1203284010,42.315394,-71.090315,93,Waumbeck St,,,Dorchester,MA,Suffolk County,2121,US
COO836602,ERECT,Certificate of Occupancy,Erect,Single Family DwellingERT648370;- 1/5/17 &; A824657;- 5/21/18,belayneh abebe,254500,225,6/5/2018 8:50, ,Closed,BOSTON REDEVELOPMENT AUTH,1-2FAM,2386,146420,1203205010,42.314951,-71.090527,94,Waumbeck St,,,Dorchester,MA,Suffolk County,2121,US
COO836602,ERECT,Certificate of Occupancy,Erect,Single Family DwellingERT648370;- 1/5/17 &; A824657;- 5/21/18,belayneh abebe,254500,225,6/5/2018 8:50, ,Closed,PANDYA  FAMILY  REVOCABLE   TRUST,1-2FAM,2386,146420,1203210000,42.314951,-71.090527,94,Waumbeck St,,,Dorchester,MA,Suffolk County,2121,US
ERT648370,ERECT,Erect/New Construction,Erect,Combine 3 existing Lots into one Lot and subdivide into 4 Lots.; Erect; a Semi-attached Single Family Dwelling on newly created 2 625 sq ft Lot.; See ERT654969 ( 96 Waumbeck St ); Part of the New Homes Initiative ( NHI ) Program.,belayneh abebe,204500,2316,1/5/2017 12:34, ,Closed,BOSTON REDEVELOPMENT AUTH,1-2FAM,2386,146420,1203205010,42.314951,-71.090527,94,Waumbeck St,,,Dorchester,MA,Suffolk County,2121,US
ERT648370,ERECT,Erect/New Construction,Erect,Combine 3 existing Lots into one Lot and subdivide into 4 Lots.; Erect; a Semi-attached Single Family Dwelling on newly created 2 625 sq ft Lot.; See ERT654969 ( 96 Waumbeck St ); Part of the New Homes Initiative ( NHI ) Program.,belayneh abebe,204500,2316,1/5/2017 12:34, ,Closed,PANDYA  FAMILY  REVOCABLE   TRUST,1-2FAM,2386,146420,1203210000,42.314951,-71.090527,94,Waumbeck St,,,Dorchester,MA,Suffolk County,2121,US
COO875925,ERECT,Certificate of Occupancy,Erect,Single Family DwellingCertificate;For: Single Family with Extended Living to Attic.Ert648352;- 1/5/17  &; A824674;- 5/21/18,belayneh abebe,254500,225,9/11/2018 8:53, ,Closed,BOSTON REDEVELOPMENT AUTH,1-2FAM,0,172386,1203284010,42.315444,-71.090451,95,Waumbeck St,,,Dorchester,MA,Suffolk County,2121,US
ERT648352,ERECT,Erect/New Construction,Erect,Erect;a Semi-attached Single Family Dwelling on newly subdivided 3 175 sq ft Lot.; See ERT654978 ( 97 Waumbeck St ); Part of the New Homes Initiative ( NHI ) Program - one lot to be subdivided into 4 lots to have 2 bldgs,belayneh abebe,204500,2316,1/5/2017 11:51, ,Closed,BOSTON REDEVELOPMENT AUTH,1-2FAM,0,172386,1203284010,42.315444,-71.090451,95,Waumbeck St,,,Dorchester,MA,Suffolk County,2121,US
COO836617,ERECT,Certificate of Occupancy,Erect,Single Family DwellingERT654969;- 1/5/17 &; A824663 - 5/21/18,belayneh abebe,254500,225,6/5/2018 8:53, ,Closed,BOSTON REDEVELOPMENT AUTH,1-2FAM,2386,146421,1203205010,42.31508,-71.090427,96,Waumbeck St,,,Dorchester,MA,Suffolk County,2121,US
COO836617,ERECT,Certificate of Occupancy,Erect,Single Family DwellingERT654969;- 1/5/17 &; A824663 - 5/21/18,belayneh abebe,254500,225,6/5/2018 8:53, ,Closed,PANDYA  FAMILY  REVOCABLE   TRUST,1-2FAM,2386,146421,1203210000,42.31508,-71.090427,96,Waumbeck St,,,Dorchester,MA,Suffolk County,2121,US
COO836617,ERECT,Certificate of Occupancy,Erect,Single Family DwellingERT654969;- 1/5/17 &; A824663 - 5/21/18,belayneh abebe,254500,225,6/5/2018 8:53, ,Closed,TAYE  SAMSON  T,1-2FAM,2386,146421,1203209000,42.31508,-71.090427,96,Waumbeck St,,,Dorchester,MA,Suffolk County,2121,US
ERT654969,ERECT,Erect/New Construction,Erect,Combine 3 existing Lots into one Lot and subdivide into 4 Lots.; Erect; a Semi-attached Single Family Dwelling on newly created 2 546 sq ft Lot.; Plans filed under ERT648370 ( 94 Waumbeck St ); Part of the New Homes Initiative ( NHI ) Program.;;;,belayneh abebe,204500,4366,1/5/2017 12:39,7/5/2017 0:00,Closed,BOSTON REDEVELOPMENT AUTH,1-2FAM,2386,146421,1203205010,42.31508,-71.090427,96,Waumbeck St,,,Dorchester,MA,Suffolk County,2121,US
ERT654969,ERECT,Erect/New Construction,Erect,Combine 3 existing Lots into one Lot and subdivide into 4 Lots.; Erect; a Semi-attached Single Family Dwelling on newly created 2 546 sq ft Lot.; Plans filed under ERT648370 ( 94 Waumbeck St ); Part of the New Homes Initiative ( NHI ) Program.;;;,belayneh abebe,204500,4366,1/5/2017 12:39,7/5/2017 0:00,Closed,PANDYA  FAMILY  REVOCABLE   TRUST,1-2FAM,2386,146421,1203210000,42.31508,-71.090427,96,Waumbeck St,,,Dorchester,MA,Suffolk County,2121,US
ERT654969,ERECT,Erect/New Construction,Erect,Combine 3 existing Lots into one Lot and subdivide into 4 Lots.; Erect; a Semi-attached Single Family Dwelling on newly created 2 546 sq ft Lot.; Plans filed under ERT648370 ( 94 Waumbeck St ); Part of the New Homes Initiative ( NHI ) Program.;;;,belayneh abebe,204500,4366,1/5/2017 12:39,7/5/2017 0:00,Closed,TAYE  SAMSON  T,1-2FAM,2386,146421,1203209000,42.31508,-71.090427,96,Waumbeck St,,,Dorchester,MA,Suffolk County,2121,US
COO875936,ERECT,Certificate of Occupancy,Erect,Single Family Dwelling Certificate For: Single Family with Extended Living;into Attic.ERT654978 - 1/5/17  &; A824679;- ;5/21/18,belayneh abebe,254500,225,9/11/2018 8:55, ,Closed,BOSTON REDEVELOPMENT AUTH,1-2FAM,0,172384,1203284010,42.315455,-71.090509,97,Waumbeck St,,,Dorchester,MA,Suffolk County,2121,US
ERT654978,ERECT,Erect/New Construction,Erect,Erect; a Semi-attached Single Family Dwelling on newly subdivided 2 982 sq ft Lot.; Plans filed with ERT648352 ( 95 Waumbeck St ); Part of;the New Homes Initiative ( NHI ) Program,belayneh abebe,204500,4366,1/5/2017 12:30, ,Closed,BOSTON REDEVELOPMENT AUTH,1-2FAM,0,172384,1203284010,42.315455,-71.090509,97,Waumbeck St,,,Dorchester,MA,Suffolk County,2121,US
COO836630,ERECT,Certificate of Occupancy,Erect,Single Family DwellingERT648363 - 1/5/17 &; A824691 - 5/1/18,belayneh abebe,254500,225,6/5/2018 8:55, ,Closed,TAYE  SAMSON  T,1-2FAM,0,172382,1203209000,42.315115,-71.090592,98,Waumbeck St,,,Dorchester,MA,Suffolk County,2121,US
ERT648363,ERECT,Erect/New Construction,Erect,Combine 3 existing Lots into one Lot and subdivide into 4 Lots.; Erect; a Semi-attached Single Family Dwelling on newly created 2 532 sq ft Lot.; See ERT659986 ( 100 Waumbeck St ); Part of the New Homes Initiative ( NHI ) Program.,belayneh abebe,204500,2316,1/5/2017 12:33, ,Closed,TAYE  SAMSON  T,1-2FAM,0,172382,1203209000,42.315115,-71.090592,98,Waumbeck St,,,Dorchester,MA,Suffolk County,2121,US
COO681666,ERECT,Certificate of Occupancy,Erect,Five (5) Residential UnitsERT55776 issued: 12/16/15,Ben Joyce,504000,4525,2/27/2017 11:08, ,Closed,SYRIA TEMPLE NO 31 ANCIENT,1-3FAM,3360,343070,1701424000,42.289673,-71.075755,19,Darlington St,,,Dorchester Center,MA,Suffolk County,2124,US
COO681678,ERECT,Certificate of Occupancy,Erect,Four (4) Residential Units;;ERT55783 issued: 12/16/15;,Ben Joyce,622350,2965,2/27/2017 11:10, ,Closed,SYRIA TEMPLE NO 31 ANCIENT,1-3FAM,4149,343069,1701424000,42.289858,-71.075819,21,Darlington St,,,Dorchester Center,MA,Suffolk County,2124,US
COO681665,ERECT,Certificate of Occupancy,Erect,Four (4) Residential Units;;ERT55785 issued: 12/16/15,Ben Joyce,942300,4295,2/27/2017 10:57, ,Closed,SYRIA TEMPLE NO 31 ANCIENT,1-4FAM,6282,343067,1701424000,42.289926,-71.075544,86,Southern Ave,,,Dorchester Center,MA,Suffolk County,2124,US
ERT716802,ERECT,Erect/New Construction,Erect,Erect a four unit building with four parking spaces  which requires GCOD  but is otherwise zoning compliant.,Ben Rogan,1200000,12741,1/14/2019 15:31,7/14/2019 0:00,Open,173 ENDICOTT LLC,1-4FAM,5400,53831,301389000,42.365798,-71.057341,173,Endicott St,,,Boston,MA,Suffolk County,2113,US
ERT901383,ERECT,Erect/New Construction,Erect,Build new 1 family home within existing footprint.*Note:Reconstruct 1 family home to comply with violation of record;due to remaining structure deemed unsafe by the field building official.;Article 4 has been applied.; (Additional story approved via BOA# 808048),Benjaman Marshall,227610,2363,3/5/2019 12:21,9/5/2019 0:00,Open,BOJANG 2  LLC,1-2FAM,0,139283,2205416000,42.346019,-71.151534,95,Union St,,,Brighton,MA,Suffolk County,2135,US
ERT776993,ERECT,Erect/New Construction,Erect,Erect new two-family dwelling (modular) with propose two (2) off-street parking on subdivided lot under ALT776983.,Bertram Williamson,400000,4185,1/17/2019 14:13,7/17/2019 0:00,Closed,WILLIAMSON BERTRAM JR,Other,3800,423010,1802672000,42.272721,-71.102478,183,Savannah Ave,,,Mattapan,MA,Suffolk County,2126,US
ERT640228,ERECT,Erect/New Construction,Erect,Hearth at Four Corners -; Construct a new 4 story  54 Unit Senior Housing Facility.; There will be both affordable and market-rate Units distributed throughout the;Building.; There will be a Community Room and a Leasing Office located on the Ground Floor.;;Amenity Spaces ( Laundry Room / Fitness Room etc.) will be located throughout the Building.; There will be 14 at-grade Parking Spaces.;;;,Beverley Johnson Johnson,13600000,140470,7/24/2019 9:56,1/24/2020 0:00,Closed,CITY OF BOSTON,Multi,50600,420837,1401103000,42.304932,-71.078012,16,Ronald St,,,Dorchester,MA,Suffolk County,2121,US
ERT792010,ERECT,Erect/New Construction,Erect,Erect a single family dwelling;with;one (1);car garage on a existing vacant lot. File in conjunction with ERT788328.;;,Bill  Moore,150000,1586,4/12/2019 13:30,10/12/2019 0:00,Open,MOSS HILL BUILDERS LLC,1-2FAM,2200,172834,2011724000,42.258256,-71.157337,52,Birchwood St,,,West Roxbury,MA,Suffolk County,2132,US
COO874078,ERECT,Certificate of Occupancy,Erect,Four (4) Residential;Units;w/Parking ERT528722;issued ;4/6/17 &;;A751373 issued 10/11/17;,Bill Bevelaova,1015000,445,8/30/2018 8:34, ,Closed,4 KEMP LLC,Multi,0,81047,702852000,42.32672,-71.05638,4,Kemp St,,,South Boston,MA,Suffolk County,2127,US
COO870412,ERECT,Certificate of Occupancy,Erect,(4) ;Unit Residential Building &; associated Parking Ert 528722;issued ;4/6/17  A 751373 issued 10/11/17*Temporary certificate-expires- 9/21/18-pending completion of permit*;,Bill Bevelaova,0,100,8/23/2018 9:04, ,Closed,4 KEMP LLC,Multi,0,81047,702852000,42.32672,-71.05638,4,Kemp St,,,South Boston,MA,Suffolk County,2127,US
COO606424,ERECT,Certificate of Occupancy,Erect,Park.;Garage;(Lvls B-2 &;;B-3);;Rtl Lvl on Flrs;B-1  1  2  &;;3.;Resid.  Amenity Club  Pool on Fls 4 &; 5  Residences;Bldg will be Occupied;in phases. 442 condo units w/amty. space incl lounge  restaurant &;;pool  to resid. lobbies  retail inc  rest.  coffee shop &; grocery store support spaces;&; park.Temp. C/O Base Bldg/Core Shell &;;Comm.  Areas Bsmt. B3;thru;Roof ;Park. Grge. Levels B-2 &; B3  Core Shell; Retail &; Rest.  -B1  1  2 &; 3  Resid. ;Amenity;Fls. CL-1 &; CL-2 ;incl. Pool &; Lounge Areas  ;Res. Units;Fls. 10-55 (Constr.fls # 6-48); &; 56 (49); Buffer Fl.  Mech. Penthouse; (Constr. fl 54) - ADDING: FLRS PH3 &; PH4 (UNIT #'S: PH3B  PH3D  PH3E (51st Fl.)  PH4B  PH4D  PH4E (52nd Fl.)  (UNITS: PH3A;&; PH4A CORE &; SHELL)  Assoc. Corridors &; Common Areas. *Temp.; Expires-11/30/17,Bill Cole,0,2850,10/24/2017 0:00, ,Closed,FOUR 26 WASHINGTON ST OWNER ,Mixed,1046330,345227,304584010,42.355777,-71.059526,1,Franklin St,,,Boston,MA,Suffolk County,2110,US
COO770739,ERECT,Certificate of Occupancy,Erect,Millenium Tower 442 Residential Units  Amenity;Spaces;Lounge ;Restaurant and Swimming Pool  Retail Spaces  Restaurant  Coffee Shop  Grocery Store  Support Spaces  Wireless Communication and Parking Garage. ;COO for Base Building Core and Shell  Common Area's Basement through Roof  Parking Garage  Core &; Shell Retail and Restaurant  Residential Amenity Spaces Lounge  Restaurant and Swimming Pool  Residential Units;floors 10-55  and Mechanical Penthouse.;ERT208918 June 30  2014; FND280741 September 25  2013; ;;;;;,Bill Cole,290552415,23200,11/16/2017 18:40, ,Closed,FOUR 26 WASHINGTON ST OWNER ,Mixed,0,345227,304584010,42.355777,-71.059526,1,Franklin St,,,Boston,MA,Suffolk County,2110,US
COO988587,ERECT,Certificate of Occupancy,Erect,27 Residential Units  1 Retail Space &; 1 Level Underground ParkingTemporary;Certificate for the;27 Residential Units to expires April 10  2020;pending issuance of A985798.ERT306572;issued 12/6/16  A665679 issued 9/27/18 &;;A985798 pending.,Bill Welch,7000000,1100,10/18/2019 0:00, ,Closed,ALBANY 519 CONDO ASSOCIATION,Multi,0,352033,801106010,42.338979,-71.066583,84-88,Wareham St,,,Boston,MA,Suffolk County,2118,US
COO692876,NEWCON,Certificate of Occupancy,New construction,Underground Parking ;Commercial/Retail Spaces ;832 Residential Units w/Residential Amenities SpacesTemp. COO for Phase 1-;Tower B;;first floor Lobby  3 levels parking for;1/2 of Garage  Core &; Shell for floors 1  2 &; 3 ;4th floor Amenities;&; 104 Res. Units flrs. 4 thru 9. PHASE 2 - 250;Res. Units  (2) 4th floor terraces w/Pool. ADDING: PHASE 3 - Tower C:;104 Res.;Units  3 levels parking for other 1/2;of Garage  Retail Levels 1  2 &; 3 (Core &; Shell) ;4th Floor Terrace. ADDING PHASE 4 - (8/30/17) - 128 Residntial Units on Level 7-10 of Bldg. C.- Adding 246 Residential Units - Building C - Levels 11 thru 20TCO to expire in 30 days; 1/30/18 *pending completion of permitted work. ERT354061 issued: 5/21/15 &; A627262 issued: 1/18/17,Bill Wilbur,336781000,3310,11/30/2017 0:00, ,Closed,MS BOSTON SEAPORT LLC,Mixed,1222550,352651,602640020,42.353109,-71.04722,23-55,Northern Ave,,,Boston,MA,Suffolk County,2210,US
COO1001075,ERECT,Certificate of Occupancy,Erect,Two (2) FamilyERT589788 - 6/13/19  &; SF829159 - 5/59/18,Bob Boustris,300000,3225,9/24/2019 11:08, ,Closed,LIVE WIRE DEVELOPMENT LLC,VacLd,0,15400,2203166000,42.355968,-71.164651,168,Bigelow St,,,Brighton,MA,Suffolk County,2135,US
COO783455,ERECT,Certificate of Occupancy,Erect,Two Family Town HouseERT664417 issued: 3/3/17  SF679165 issued: 2/7/17,Boris Kutikov,434350,35,1/3/2018 11:34, ,Closed,MO  REALTY  LLC,1-2FAM,5386,420742,2204323000,42.353261,-71.154349,90,Parsons St,,,Brighton,MA,Suffolk County,2135,US
ERT664417,ERECT,Erect/New Construction,Erect,Construct new Two Family Town House; raze existing building on lot and subdivide to create lot for ERT664432 (92-94 Parsons Street)* 92-94 Parsons 5386 s.f.** 88 Parsons 5301 s.f,Boris Kutikov,400000,4201,3/3/2017 11:19,9/3/2017 0:00,Open,MO  REALTY  LLC,1-2FAM,5386,420742,2204323000,42.353261,-71.154349,90,Parsons St,,,Brighton,MA,Suffolk County,2135,US
COO783438,ERECT,Certificate of Occupancy,Erect,Two Family Town House ERT664432 issued: 12/12/16,Boris Kutikov,400000,45,1/3/2018 11:36, ,Closed,MO  REALTY  LLC,1-2FAM,5386,420743,2204323000,42.35339,-71.154395,94,Parsons St,,,Brighton,MA,Suffolk County,2135,US
ERT567520,ERECT,Erect/New Construction,Erect,Erect three unit dwelling on newly created lot;with parking at grade for three (3) vehicles all as shown on plans submitted herewith. Combine Three Lots (0105173000  010572000  0105166000) into single lot. New lot to contain 3 070 square feet of land for proposed three family dwelling.more infi in 7/11/18 do not issue until fee is verifiedNo COO request  need to speak with Sean Lydon Deputy Commissioner 8/15/19,Brad Chambers,573000,11924,10/5/2017 15:15, ,Closed,JPM ARDEE LLC,1-3FAM,0,4671,105172000,42.366098,-71.030566,3,Ardee St,,,East Boston,MA,Suffolk County,2128,US
ERT567520,ERECT,Erect/New Construction,Erect,Erect three unit dwelling on newly created lot;with parking at grade for three (3) vehicles all as shown on plans submitted herewith. Combine Three Lots (0105173000  010572000  0105166000) into single lot. New lot to contain 3 070 square feet of land for proposed three family dwelling.more infi in 7/11/18 do not issue until fee is verifiedNo COO request  need to speak with Sean Lydon Deputy Commissioner 8/15/19,Brad Chambers,573000,11924,10/5/2017 15:15, ,Closed,JPM ARDEE LLC,1-3FAM,0,4671,105173000,42.366098,-71.030566,3,Ardee St,,,East Boston,MA,Suffolk County,2128,US
COO981151,ERECT,Certificate of Occupancy,Erect,Single Family Dwelling;ERT796032 issued: 3/5/18,Brendan Carr,466000,35,8/6/2019 8:45, ,Closed,DOSSANTOS ELIZABETH M,1-2FAM,2300,24790,1403080000,42.28822,-71.084547,137,Callender St,,,Dorchester Center,MA,Suffolk County,2124,US
COO955019,ERECT,Certificate of Occupancy,Erect,Two (2) Family Dwelling ERT788811 issued: 3/5/18,Brendan Carr,465000,45,5/23/2019 15:48, ,Closed,WOLDEYES YOSEF L,1-2FAM,2850,422528,1403714000,42.286681,-71.082509,25,Jones Ave,,,Dorchester Center,MA,Suffolk County,2124,US
COO955027,ERECT,Certificate of Occupancy,Erect,Two (2) Family Dwelling ERT788815 issued: 3/5/18,Brendan Carr,465000,45,5/23/2019 15:51, ,Closed,JALLOH LOVETTA,1-2FAM,2850,422529,1403715000,42.286631,-71.08269,29,Jones Ave,,,Dorchester Center,MA,Suffolk County,2124,US
COO955008,ERECT,Certificate of Occupancy,Erect,Two (2) Family Dwelling ERt788808 issued: 3/5/18,Brendan Carr,465000,45,5/23/2019 15:47, ,Closed,FEDE MARIE B,1-2FAM,2850,422527,1403710000,42.286784,-71.071045,,,,,Boston,MA,Suffolk County,2124,US
COO855562,ERECT,Certificate of Occupancy,Erect,TWO (2);FAMILY;DWELLING;ERT722463 issued: 8/31/17  ALT731141 issued: 8/31/17  ALT731148 issued: 8/31/17  SF731172 issued: 10/17/17 &; SF767862 issued: 10/17/17,Brendan O'Heir,1000000,35,7/25/2018 9:11, ,Closed,15-17 SWALLOW STREET LLC,1-2FAM,6032,422096,604156030,42.333534,-71.03025,17,Swallow St,,,South Boston,MA,Suffolk County,2127,US
COO931670,ERECT,Certificate of Occupancy,Erect,(6) Family DwellingErt 615883 issued 11/15/17,Brendan O'Shea,1100000,3675,3/26/2019 8:30, ,Closed,205 WEST EIGHTH STREET CONDOMINIUM TRUST,1-2FAM,8783,52553,700508000,42.33317,-71.05172,205,W 8th St,,,South Boston,MA,Suffolk County,2127,US
ERT615883,ERECT,Erect/New Construction,Erect,Erect a new 6 unit residential building with roof deck as per plans. Construction plans to be submitted upon ZBA approval. See ALT615885 to combine parcel 0700508000 with 0700509010.;,Brendan O'Shea,1100000,11506,11/15/2017 13:23,5/15/2018 0:00,Closed,205 WEST EIGHTH STREET CONDOMINIUM TRUST,1-2FAM,8783,52553,700508000,42.33317,-71.05172,205,W 8th St,,,South Boston,MA,Suffolk County,2127,US
ERT781253,ERECT,Erect/New Construction,Erect,Erect a new;three-family dwelling with proposed five off-street parking on vacant land.FP and FA,Brendan O'Shea,750000,7794,1/25/2019 13:23,7/25/2019 0:00,Open,201 W EIGHTH LLC,VacLd,5005,423074,700507000,42.333208,-71.051914,201,W 8th St,,,South Boston,MA,Suffolk County,2127,US
ERT585254,ERECT,Erect/New Construction,Erect,Combine 4  6 and 8 Winthrop Street to be known as 4-8 Winthrop.; Erect a 12 Unit Building all approved by Board of Appeal and Final Arbiter. See Related Records ALT585260 &; ALT585288 FP and FA;,Brendan Toye,2400000,50323,1/15/2019 10:47,7/15/2019 0:00,Closed,WINTHROP MAVERICK LLC,VacLd,1144,437436,105672000,42.370082,-71.039561,8,Winthrop St,,,East Boston,MA,Suffolk County,2128,US
COO768051,ERECT,Certificate of Occupancy,Erect,Thirty-three (33) Residential Units (with;30 parking spaces in the basement)ALT458565 issued: 7/9/15  A514691 issued: 10/15/15  ;A492424 issued: 1/5/16 &; A773624 issued 11/6/2017,Brett Waterman,22306350,37838.75,11/13/2017 11:53, ,Closed,LUCAS CONDOMINIUM TRUST,Multi,0,126031,306171000,42.345725,-71.065679,140,Shawmut Ave,,,Boston,MA,Suffolk County,2118,US
COO772792,ERECT,Certificate of Occupancy,Erect,Thirty-three (33) Residential Units (with;30 parking spaces in the basement)Temporary Certificate valid for 30 days; 11/30/2017;pending BFD Punch List.ALT458565 issued: 7/9/15  A514691 issued: 10/15/15 &; A492424 issued: 1/5/16,Brett Waterman,0,1728.75,11/6/2017 0:00,11/30/2017 0:00,Closed,LUCAS CONDOMINIUM TRUST,Multi,0,126031,306171000,42.345725,-71.065679,140,Shawmut Ave,,,Boston,MA,Suffolk County,2118,US
ERT700968,ERECT,Erect/New Construction,Erect,Brooke Charter School -; Combine Lot 2B-2 and 2B-3 to become one 2.32 Acre Lot.;;Erect a new 4 story Charter School;to accommodate a planned High School with an enrollment of approximately 600 students and 180 students for its 8th grade Academy. The site is located adjacent to its existing K-8 School at 150 American Legion Highway which opened in 2014. The program will include new Classrooms  Student Cafeteria ;Gymnasium  Auditorium and other Educational spaces including Music and Art rooms.; There will;also be;Administrative;and Faculty Offices.; Site work will include : new;Lighting  Landscaping  and;Parking.;;;;;;;;;;;;; LPR,brian corcoran,29688959,301399,6/22/2017 8:11,12/22/2017 0:00,Open,,Comm,95354,422093, ,42.293776,-71.093625,200,American Legion Hwy,,,Dorchester Center,MA,Suffolk County,2124,US
COO1028825,ERECT,Certificate of Occupancy,Erect,Two (2);FamilyERT631062 - 2/27/18;;;;,brian keane,300000,35,12/17/2019 10:50, ,Closed,REJENT ANDREW,VacLd,0,420653,1806030010,42.276461,-71.135291,13,June St,,,Roslindale,MA,Suffolk County,2131,US
ERT631062,ERECT,Erect/New Construction,Erect,Erect Two Unit Townhouse on vacant land along with separate Two Unit Townhouse (ERT631062:15-17 June St) on same parcel.;;;;;(Do not finalize;permit until applicant has submitted and amendment to provide supplemental structural framing and fastening information as well as disclosed the locations of common utilities with common access),brian keane,300000,3173,2/27/2018 15:09,8/27/2018 0:00,Closed,REJENT ANDREW,VacLd,6000,420653,1806030010,42.276461,-71.135291,13,June St,,,Roslindale,MA,Suffolk County,2131,US
COO1028826,ERECT,Certificate of Occupancy,Erect,Two (2) FamilyERT629859 -; 2/27/18;;;;;;,Brian Keane,300000,35,12/17/2019 10:48, ,Closed,REJENT ANDREW,VacLd,0,420654,1806030010,42.276348,-71.135384,17,June St,,,Roslindale,MA,Suffolk County,2131,US
ERT629859,ERECT,Erect/New Construction,Erect,Erect a Two Unit Townhouse on vacant land along with a separate Two Unit Townhouse (ERT631062: 11-13 June St) on same parcel.;;;;;WARNING!!! OIL TANK SPILL DO NOT CHANGE CONTRACTOR NAMES UNTIL ALL REPORTS AND INSURANCE CLAIMS HAVE BEEN SATISFIEDSP # 12 3-31-2017 Ending 4-19-2017(Do not finalize;permit until applicant has submitted and amendment to provide supplemental structural framing and fastening information as well as disclosed the locations of common utilities with common access);;;;,Brian Keane,300000,3179,2/27/2018 15:10,8/27/2018 0:00,Closed,REJENT ANDREW,VacLd,3200,420654,1806030010,42.276348,-71.135384,17,June St,,,Roslindale,MA,Suffolk County,2131,US
COO757896,ERECT,Certificate of Occupancy,Erect,Six Residential Units With 6 Car GarageCOO for Six Residential Units With 6 Car GarageERT532126 issued 8/30/2016;,Brian Murkland,1375000,525,10/3/2017 15:56, ,Closed,37 MERCER STREET CONDOMINIUM TRUST,Multi,0,94288,701225000,42.332216,-71.049183,37,Mercer St,,,South Boston,MA,Suffolk County,2127,US
COO757896,ERECT,Certificate of Occupancy,Erect,Six Residential Units With 6 Car GarageCOO for Six Residential Units With 6 Car GarageERT532126 issued 8/30/2016;,Brian Murkland,1375000,525,10/3/2017 15:56, ,Closed,FORD JOHN J,Multi,0,94288,701224000,42.332216,-71.049183,37,Mercer St,,,South Boston,MA,Suffolk County,2127,US
COO679624,ERECT,Certificate of Occupancy,Erect,Retail &; Eight ApartmentsCOO for Retail &; Eight ApartmentsERT417797 issued 5/29/2015,Brian Porter,1904000,867.5,2/22/2017 15:14, ,Closed,WHITTIER PLACE LLC,Mixed,10000,146090,1701026000,42.294944,-71.071773,474,Washington St,,,Dorchester Center,MA,Suffolk County,2124,US
COO689962,NEWCON,Certificate of Occupancy,New construction,170 Residential Units &; 2 Commercial SpacesTemp. Certificate for;157 Residential Units;&;;Terrace - Fourteenth Floor - (Excluding;Units: L2 - A  B  G  H &; E &; L3 - J &; K - L4 - J &; K &; L5 - J &; K &; L6 - J &; K). 30 day extension to expire on 10/20/2017 *-extending coo until 12/19/2017-;pending completion of the permit.ERT354745 issued 7/10/2015 &; FND420282 issued 10/27/2014,Brian Radomski,65000000,510,10/19/2017 0:00, ,Closed,LOVEJOY WHARF CONDOMINIUM TRUST,Mixed,220000,172189,303063000,42.36703,-71.060086,131,Beverly St,,,Boston,MA,Suffolk County,2114,US
COO769602,NEWCON,Certificate of Occupancy,New construction,157 Residential Units;&; 2;Retail;SpacesCertificate for;Base Bldg/Core shell-15 stories  Bsmt  Mech Penthouse ; (157) Residential Units ;Terrace  (2)-Core/Shell - (;Retail;Spaces)- ;Only ERT354745 issued 7/10/2015 &; FND420282 issued 10/27/2014,Brian Radomski,65000000,171281.88,10/19/2017 0:00, ,Closed,LOVEJOY WHARF CONDOMINIUM TRUST,Mixed,220000,172189,303063000,42.36703,-71.060086,131,Beverly St,,,Boston,MA,Suffolk County,2114,US
ERT522524,ERECT,Erect/New Construction,Erect,;Erect One Family Dwelling on existing lot,Brian S Kilduff,300000,3155,7/12/2018 14:38,1/12/2019 0:00,Open,HARRINGTON CHARLES H,1-2FAM,0,419465,1602643000,42.290378,-71.040812,38,Port Norfolk St,,,Dorchester,MA,Suffolk County,2122,US
COO834997,ERECT,Certificate of Occupancy,Erect,Single Family w/GarageERT582480 issued: 4/25/17 ;,Brian Tanguy,610000,505,5/31/2018 10:13, ,Closed,FITZMAURICE WILLIAM J,VacLd,3356,127420,601912000,42.335956,-71.047552,293,Silver St,,,South Boston,MA,Suffolk County,2127,US
ERT582480,ERECT,Erect/New Construction,Erect,SP #12 09-30-2016 ending 10-18-2016.ERECT 3-STORY SINGLE DWELLING W/GARAGE AND REAR AND ROOF DECKS ON VACANT LAND PER DRAWINGS SUBMITTED.This project includes fire protection.; COMBINE LOTS 1912 &; 1913,Brian Tanguy,600000,6570,4/25/2017 13:09,10/25/2018 0:00,Open,FITZMAURICE WILLIAM J,VacLd,3356,127420,601912000,42.335956,-71.047552,293,Silver St,,,South Boston,MA,Suffolk County,2127,US
COO1037549,ERECT,Certificate of Occupancy,Erect,Seventy (70) Residential Units  Parking ; Common Area ;Leasing Offices  Management Offices  Lounge Space and;Community Room.;ERT781928 Issued 2/20/18*Certificate-expires- 3/1/20 - pending completion of Article 37*,Brian Turley,0,410,12/31/2019 13:33, ,Closed,BOSTON HOUSING AUTHORITY,Multi,96432,423145,902643000,42.333215,-71.087911,100,Cabot St,,,Roxbury Crossing,MA,Suffolk County,2120,US
COO681195,ERECT,Certificate of Occupancy,Erect,Offices  Bank &; CafeCertificate for Offices  Bank &; Caf (Core &; Shell ONLY)ERT421701 issued: 3/19/2015 &; ALT668881 issued: 2/9/2017,Brian Wolfe,5320129,3270,5/18/2017 0:00, ,Closed,MS  SEAPORT BLOCK  H  LLC,Comm,22000,353187,602640090,42.352577,-71.047856,55-57,Seaport Blvd,,,Boston,MA,Suffolk County,2210,US
COO644993,ERECT,Certificate of Occupancy,Erect,Offices &; RetailTemp. COO for Offices &; Retail (Core &; Shell ONLY) - to expire in 90 days on;4/7/2017 *Pending completion of site work &; A587962 (Parcel Sub-Division)ERT421701 issued 3/19/2015 &; A587962 (Pending),Brian Wolfe,5312129,480,3/7/2017 0:00, ,Closed,MS  SEAPORT BLOCK  H  LLC,Comm,16000,353187,602640090,42.352577,-71.047856,55-57,Seaport Blvd,,,Boston,MA,Suffolk County,2210,US
COO991639,ERECT,Certificate of Occupancy,Erect,(2) Family DwellingCertificate For Unit #87-OnlyErt 682959 issued 2/12/18  A909534 pending*Temporary certificate-expires-11/20/19-pending completion of permit*;,Broderick Egodogbere,0,75,8/20/2019 9:03, ,Closed,85-87 WILLOWWOOD CONDOMINIUM TRUST,VacLd,3100,150390,1403381000,42.283531,-71.086026,87,Willowwood St,,,Dorchester Center,MA,Suffolk County,2124,US
ERT937791,ERECT,Erect/New Construction,Erect,Old Colony Phase 3A Redevelopment Project - Construct New Mixed Use Facility Containing 88 apartment units in a 4 story building.,Bryan Miller,26901207,276865,6/12/2019 13:28,12/12/2019 0:00,Open,BOSTON HOUSING AUTHORITY,Mixed,107540,162740,700539001,42.331857,-71.051611,20,Rev Richard A Burke St,,,Boston,MA,Suffolk County,2127,US
ERT937794,ERECT,Erect/New Construction,Erect,Old Colony Phase 3A Redevelopment - Building A2 - Construct 47 new apartment units  storage spaces;in a 4 story building.,Bryan Miller,14367690,149425,6/12/2019 13:28,12/12/2019 0:00,Open,BEACON COMMUNITIES LLC,Multi,49094,164701,700538010,42.332327,-71.051006,229,E 8th St,,,South Boston,MA,Suffolk County,2127,US
ERT814344,ERECT,Erect/New Construction,Erect,Construct;a new 4 story  Residential Building with Ground Level Parking  and Amenity spaces with;3;stories of Residential; Condominiums above. FA and FP; There will be Sixteen (16) Condominiums total.;;,Caillin Moyen,5492187,60886,8/23/2018 12:34,2/23/2019 0:00,Closed,TWO451 WASHINGTON LLC MASS LLC,VacLd,28920,144505,903162020,42.328591,-71.086528,2451,Washington St,,,Roxbury,MA,Suffolk County,2119,US
ERT687634,ERECT,Erect/New Construction,Erect,DEMOLISH EXISTING SINGLE FAMILY DWELLING AND ERECT 4-STORY  3-UNIT RESIDENTIAL BUILDING W/GARAGE AS PER PLANS SUBMITTED.;,caleb charles,575000,6062,1/2/2019 15:47, ,Closed,MCKINLEY INVESTMENT GROUP  LLC,1-2FAM,3881,106514,106318000,42.37484,-71.03458,221,Paris St,,,East Boston,MA,Suffolk County,2128,US
ERT555024,ERECT,Erect/New Construction,Erect,;Erect a new 4-story wood frame building with 3 residential units above a Garage on grade. Entire building will be sprinklered per code.;,caleb charles,750000,7782,4/4/2019 8:26, ,Open,MCKINLEY INVESTMENT GROUP LLC,1-3FAM,0,355860,600553000,42.337863,-71.051765,217,D St,,,South Boston,MA,Suffolk County,2127,US
COO754537,ERECT,Certificate of Occupancy,Erect,4 Residential UnitsTemp. COO for 4 Residential Units - to expire in 30 days on 10/7/2017 *Pending completion of permitted workERT488622 Issued 11/2/16  SF642259 Issued 9/29/16 &; SF588393 Issued 5/6/16,Carl Herrmann,0,175,9/7/2017 8:51, ,Closed,ARCARI GIUSEPPE A TS,1-4FAM,4500,123443,1503184000,42.31268,-71.05597,57-59,Savin Hill Ave,,,Boston,MA,Suffolk County,2125,US
COO752926,ERECT,Certificate of Occupancy,Erect,4 Residential UnitsERT488622 Issued 11/2/16  SF642259 Issued 9/29/16 &; SF588393 Issued 5/6/16,Carl Herrmann,1257000,125,9/12/2017 14:49, ,Closed,ARCARI GIUSEPPE A TS,1-4FAM,0,123443,1503184000,42.31268,-71.05597,57-59,Savin Hill Ave,,,Boston,MA,Suffolk County,2125,US
ERT705290,ERECT,Erect/New Construction,Erect,Erect a new 15 unit residential building with parking below as per plans. Permit set to be submitted upon ZBA approval. (approved for 14 units at ZBA 11/25/19),carlos DeOliveira,4000000,41575,12/11/2019 11:05,6/11/2020 0:00,Open,81 CHESTNUT HILL AVENUE DEVELOPMENT LLC,1-4FAM,25573,207418,2102869000,42.34487,-71.15363,81,Chestnut Hill Ave,,,Brighton,MA,Suffolk County,2135,US
